X,Y,NOME_UF,TIPO,DATA_INI_U,DATA_INI_1,ACES,ULS,ARS,COD_POSTAL,COD_POST_1,DES_FREGUE,DES_CONCEL,WGS84_LAT_,WGS84_LONG,field_14,icon_url
-8.22538,40.1382,USF Trevim-Sol,USF-A,9/16/2011,9/16/2011,ACES Pinhal Interior Norte,,ARS Centro,3200-389,Lous?,Uni?o das freguesias de Lous? e Vilarinho,Lous?,40.138199999999998,-8.225379999999999,COIMBRA,./0.png
-9.06071,39.6122,USF Nazareth,USF-A,12/30/2009,12/30/2009,ACES Oeste Norte,,ARS Lisboa e Vale do Tejo,2450-125,Nazar‚,Nazar‚,Nazar‚,39.612200000000001,-9.060710000000000,LEIRIA,./0.png
-7.54028,38.4288,USF Remo,USF-A,10-01-09,10-01-09,ACES Alentejo Central,,ARS Alentejo,7200-372,Reguengos de Monsaraz,Reguengos de Monsaraz,Reguengos de Monsaraz,38.428800000000003,-7.540280000000000,VORA,./0.png
-7.16584,38.8703,USF Amoreira,USF-A,02-01-10,02-01-10,ACES S?o Mamede,ULS Norte Alentejano,ARS Alentejo,7350-314,Elvas,"Assun‡?o, Ajuda, Salvador e Santo Ildefonso",Elvas,38.870300000000000,-7.165840000000000,PORTALEGRE,./0.png
-7.16584,38.8703,USF Uadiana,USF-A,05-10-11,05-10-11,ACES S?o Mamede,ULS Norte Alentejano,ARS Alentejo,7350-000,Elvas,S?o Br s e S?o Louren‡o,Elvas,38.870300000000000,-7.165840000000000,PORTALEGRE,./0.png
-7.43566,39.2903,USF Portus Alacer,USF-A,09-01-09,09-01-09,ACES S?o Mamede,ULS Norte Alentejano,ARS Alentejo,7300-205,Portalegre,Uni?o das freguesias da S‚ e S?o Louren‡o,Portalegre,39.290300000000002,-7.435660000000000,PORTALEGRE,./0.png
-9.12964,39.4483,USF Tornada,USF-B,09-01-06,07-01-08,ACES Oeste Norte,,ARS Lisboa e Vale do Tejo,2500-315,Tornada,Uni?o das freguesias de Tornada e Salir do Porto,Caldas da Rainha,39.448300000000003,-9.129640000000000,LEIRIA,./0.png
-7.86644,38.0129,USF Alfa Beja,USF-B,3/20/2007,05-01-08,ACES Baixo Alentejo,ULS Baixo Alentejo,ARS Alentejo,7800-528,Beja,Uni?o das freguesias de Beja (Santiago Maior e S?o Jo?o Baptista),Beja,38.012900000000002,-7.866440000000000,BEJA,./0.png
-7.93176,37.0179,USF Ria Formosa,USF-B,4/30/2010,07-01-12,ACES Algarve Central,,ARS Algarve,8000-010,Faro,Uni?o das freguesias de Faro (S‚ e S?o Pedro),Faro,37.017899999999997,-7.931760000000000,FARO,./0.png
-7.06632,39.0202,USF Raia Maior,USF-A,12-01-12,12-01-12,ACES S?o Mamede,ULS Norte Alentejano,ARS Alentejo,7370-090,Campo Maior,S?o Jo?o Baptista,Campo Maior,39.020200000000003,-7.066320000000000,PORTALEGRE,./0.png
-8.85653,41.8118,USF Vale do ?ncora,USF-B,12/31/2008,01-01-11,ACES Alto Minho,ULS Alto Minho,ARS Norte,4910-527,Vila Praia de ?ncora,Vila Praia de ?ncora,Caminha,41.811799999999998,-8.856529999999999,VIANA DO CASTELO,./0.png
-8.56314,41.9118,USF Paredes de Coura,USF-A,12-03-12,12-03-12,ACES Alto Minho,ULS Alto Minho,ARS Norte,4940-520,Paredes de Coura,Uni?o das freguesias de Paredes de Coura e Resende,Paredes de Coura,41.911799999999999,-8.563140000000001,VIANA DO CASTELO,./0.png
-8.41309,41.8078,USF Terra da N¢brega,USF-A,12/30/2013,12/30/2013,ACES Alto Minho,ULS Alto Minho,ARS Norte,4980-633,Ponte da Barca,"Uni?o das freguesias de Ponte da Barca, Vila Nova de Mu¡a e Pa‡o Vedro de Magalh?es",Ponte da Barca,41.807800000000000,-8.413090000000000,VIANA DO CASTELO,./0.png
-8.57903,41.7665,USF Vale do Lima,USF-A,08-03-09,08-03-09,ACES Alto Minho,ULS Alto Minho,ARS Norte,4990-084,Ponte de Lima,Arca e Ponte de Lima,Ponte de Lima,41.766500000000001,-8.579029999999999,VIANA DO CASTELO,./0.png
-8.57903,41.7665,USF Lethes,USF-B,10-02-06,07-01-08,ACES Alto Minho,ULS Alto Minho,ARS Norte,4990-084,Ponte de Lima,Arca e Ponte de Lima,Ponte de Lima,41.766500000000001,-8.579029999999999,VIANA DO CASTELO,./0.png
-8.57903,41.7665,USF Mais Sa£de,USF-B,11-02-09,01-01-13,ACES Alto Minho,ULS Alto Minho,ARS Norte,4990-084,Ponte de Lima,Arca e Ponte de Lima,Ponte de Lima,41.766500000000001,-8.579029999999999,VIANA DO CASTELO,./0.png
-8.83375,41.69,USF Gil Eanes,USF-A,05-02-11,05-02-11,ACES Alto Minho,ULS Alto Minho,ARS Norte,4900-369,Viana do Castelo,Uni?o das freguesias de Viana do Castelo (Santa Maria Maior e Monserrate) e Meadela,Viana do Castelo,41.689999999999998,-8.833750000000000,VIANA DO CASTELO,./0.png
-8.79995,41.678,USF Arquis Nova,USF-A,12/30/2010,12/30/2010,ACES Alto Minho,ULS Alto Minho,ARS Norte,4935-087,Darque,Darque,Viana do Castelo,41.677999999999997,-8.799950000000001,VIANA DO CASTELO,./0.png
-8.58512,41.6566,USF Freixo Sa£de,USF-A,03-01-10,03-01-10,ACES Alto Minho,ULS Alto Minho,ARS Norte,4990-445,Freixo PTL,"Ardeg?o, Freixo e Mato",Ponte de Lima,41.656599999999997,-8.585120000000000,VIANA DO CASTELO,./0.png
-7.74342,41.2958,USF Nuno Grande,USF-A,6/21/2011,6/21/2011,ACES Mar?o e Douro Norte,,ARS Norte,5000-651,Vila Real,Vila Real,Vila Real,41.295800000000000,-7.743420000000000,VILA REAL,./0.png
-7.74051,41.3018,USF Corgo,USF-A,6/21/2011,6/21/2011,ACES Mar?o e Douro Norte,,ARS Norte,5000-558,Vila Real,Vila Real,Vila Real,41.301800000000000,-7.740510000000000,VILA REAL,./0.png
-7.47959,41.7543,USF Aquae Flaviae,USF-A,12/30/2010,12/30/2010,ACES Alto Tƒmega e Barroso,,ARS Norte,5400-261,Chaves,Vale de Anta,Chaves,41.754300000000001,-7.479590000000000,VILA REAL,./0.png
-7.72439,41.2993,USF F‚nix,USF-A,12-10-07,12-10-07,ACES Mar?o e Douro Norte,,ARS Norte,5000-577,Vila Real,Mateus,Vila Real,41.299300000000002,-7.724390000000000,VILA REAL,./0.png
-8.44653,40.5824,USF ?gueda Mais Sa£de,USF-A,9/24/2013,9/24/2013,ACES Baixo Vouga,,ARS Centro,3750-102,?gueda,Uni?o das freguesias de ?gueda e Borralha,?gueda,40.582400000000000,-8.446529999999999,AVEIRO,./0.png
-8.48255,40.6859,USF Rainha D. Tereza,USF-A,12-09-10,12-09-10,ACES Baixo Vouga,,ARS Centro,3850-004,Albergaria-a-Velha,Albergaria-a-Velha e Valmaior,Albergaria-a-Velha,40.685899999999997,-8.482550000000000,AVEIRO,./0.png
-8.4042,40.942,USF Escariz,USF-B,2/21/2011,06-01-14,ACES Feira e Arouca,,ARS Norte,4540-297,Escariz,Chave,Arouca,40.942000000000000,-8.404199999999999,AVEIRO,./0.png
-8.59904,40.6837,USF Salinas,USF-A,10/18/2013,10/18/2013,ACES Baixo Vouga,,ARS Centro,3800-536,Cacia,Cacia,Aveiro,40.683700000000002,-8.599040000000000,AVEIRO,./0.png
-8.64717,40.6317,USF Flor de Sal,USF-A,3/26/2010,3/26/2010,ACES Baixo Vouga,,ARS Centro,3800-039,Aveiro,Esgueira,Aveiro,40.631700000000002,-8.647169999999999,AVEIRO,./0.png
-8.6469,40.6319,USF Moliceiro,USF-B,5/14/2007,03-01-10,ACES Baixo Vouga,,ARS Centro,3810-042,Aveiro,Uni?o das freguesias de Gl¢ria e Vera Cruz,Aveiro,40.631900000000002,-8.646900000000000,AVEIRO,./0.png
-8.62525,41.0059,USF Anta,USF-B,12/22/2006,11-01-08,ACES Espinho / Gaia,,ARS Norte,4500-056,Anta,Uni?o das freguesias de Anta e Guetim,Espinho,41.005899999999997,-8.625249999999999,AVEIRO,./0.png
-8.63773,41.0028,USF Espinho,USF-B,12/21/2007,07-01-09,ACES Espinho / Gaia,,ARS Norte,4500-330,Espinho,Espinho,Espinho,41.002800000000001,-8.637729999999999,AVEIRO,./0.png
-8.57393,40.7605,USF Terras do Antu?,USF-A,12/30/2013,12/30/2013,ACES Baixo Vouga,,ARS Centro,3865-254,Salreu,Salreu,Estarreja,40.760500000000000,-8.573930000000001,AVEIRO,./0.png
-8.53761,40.9841,USF Fam¡lias,USF-B,10/23/2006,05-01-09,ACES Feira e Arouca,,ARS Norte,4535-068,Lourosa,Lourosa,Santa Maria da Feira,40.984099999999998,-8.537610000000001,AVEIRO,./0.png
-8.59716,40.9842,USF Sem Fronteiras,USF-B,12-11-06,04-01-12,ACES Feira e Arouca,,ARS Norte,4535-466,S?o Paio de Oleiros,S?o Paio de Oleiros,Santa Maria da Feira,40.984200000000001,-8.597160000000001,AVEIRO,./0.png
-8.54769,40.9266,USF Egas Moniz,USF-B,4/16/2007,07-01-08,ACES Feira e Arouca,,ARS Norte,4520-244,Santa Maria da Feira,"Uni?o das freguesias de Santa Maria da Feira, Travanca, Sanfins e Espargo",Santa Maria da Feira,40.926600000000001,-8.547689999999999,AVEIRO,./0.png
-8.49554,40.9114,USF Sudoeste,USF-B,4/20/2007,07-01-09,ACES Feira e Arouca,,ARS Norte,3700-460,Arrifana,Arrifana,Santa Maria da Feira,40.911400000000000,-8.495540000000000,AVEIRO,./0.png
-8.54804,40.9263,USF Terras de Santa Maria,USF-B,12/21/2007,07-01-09,ACES Feira e Arouca,,ARS Norte,4520-244,Santa Maria da Feira,"Uni?o das freguesias de Santa Maria da Feira, Travanca, Sanfins e Espargo",Santa Maria da Feira,40.926299999999998,-8.548040000000000,AVEIRO,./0.png
-8.57292,40.9788,USF Sa£de Mais,USF-B,12/21/2007,03-01-12,ACES Feira e Arouca,,ARS Norte,4535-405,Santa Maria de Lamas,Santa Maria de Lamas,Santa Maria da Feira,40.978800000000000,-8.572920000000000,AVEIRO,./0.png
-8.55166,40.9536,USF Cuidar,USF-B,6/20/2008,04-01-11,ACES Feira e Arouca,,ARS Norte,4520-616,S?o Jo?o de Ver,S?o Jo?o de Ver,Santa Maria da Feira,40.953600000000002,-8.551660000000000,AVEIRO,./0.png
-8.52019,40.9859,USF Fi?es,USF-B,6/20/2008,01-01-11,ACES Feira e Arouca,,ARS Norte,4505-275,Fi?es VFR,Fi?es,Santa Maria da Feira,40.985900000000001,-8.520189999999999,AVEIRO,./0.png
-8.66534,40.6046,USF Costa de Prata,USF-A,10-01-13,10-01-13,ACES Baixo Vouga,,ARS Centro,3830-193,?lhavo,?lhavo (S?o Salvador),?lhavo,40.604599999999998,-8.665340000000000,AVEIRO,./0.png
-8.71172,40.6354,USF Atlƒntico Norte,USF-A,09-01-14,09-01-14,ACES Baixo Vouga,,ARS Centro,3830-596,Gafanha da Nazar‚,Gafanha da Nazar‚,?lhavo,40.635399999999997,-8.711720000000000,AVEIRO,./0.png
-8.66534,40.6046,USF Leme,USF-A,06-02-14,06-02-14,ACES Baixo Vouga,,ARS Centro,3830-193,?lhavo,?lhavo (S?o Salvador),?lhavo,40.604599999999998,-8.665340000000000,AVEIRO,./0.png
-8.71172,40.6354,USF Beira Ria,USF-B,12/15/2008,07-01-14,ACES Baixo Vouga,,ARS Centro,3830-596,Gafanha da Nazar‚,Gafanha da Nazar‚,?lhavo,40.635399999999997,-8.711720000000000,AVEIRO,./0.png
-8.43609,40.9176,USF Nordeste,USF-A,12/30/2009,12/30/2009,ACES Aveiro Norte,,ARS Norte,3700-638,Cesar,Cesar,Oliveira de Azem‚is,40.917600000000000,-8.436090000000000,AVEIRO,./0.png
-8.46493,40.8478,USF Salvador Machado,USF-B,04-12-10,05-01-13,ACES Aveiro Norte,,ARS Norte,3720-287,Oliveira de Azem‚is,"Uni?o das freguesias de Oliveira de Azem‚is, Santiago da Riba-Ul, Ul, Macinhata da Seixa e Madail",Oliveira de Azem‚is,40.847799999999999,-8.464930000000001,AVEIRO,./0.png
-8.60125,40.8664,USF S?o Jo?o de Ovar,USF-A,12/17/2008,12/17/2008,ACES Baixo Vouga,,ARS Centro,3880-678,S?o Jo?o de Ovar,"Uni?o das freguesias de Ovar, S?o Jo?o, Arada e S?o Vicente de Pereira Jus?",Ovar,40.866399999999999,-8.601250000000000,AVEIRO,./0.png
-8.63145,40.8576,USF La‡os,USF-A,05-02-14,05-02-14,ACES Baixo Vouga,,ARS Centro,3885-282,Cortega‡a,Cortega‡a,Ovar,40.857599999999998,-8.631449999999999,AVEIRO,./0.png
-8.62501,40.9538,USF Barrinha,USF-B,12/27/2007,07-01-09,ACES Baixo Vouga,,ARS Centro,3885-518,Esmoriz,Esmoriz,Ovar,40.953800000000001,-8.625010000000000,AVEIRO,./0.png
-8.63128,40.8575,USF Jo?o Semana,USF-B,12/15/2008,04-01-11,ACES Baixo Vouga,,ARS Centro,3880-225,Ovar,"Uni?o das freguesias de Ovar, S?o Jo?o, Arada e S?o Vicente de Pereira Jus?",Ovar,40.857500000000002,-8.631280000000000,AVEIRO,./0.png
-8.49586,40.8955,USF S?o Jo?o (S?o Jo?o da Madeira),USF-B,06-01-08,01-01-10,ACES Aveiro Norte,,ARS Norte,3700-298,S?o Jo?o da Madeira,S?o Jo?o da Madeira,S?o Jo?o da Madeira,40.895499999999998,-8.495860000000000,AVEIRO,./0.png
-8.58816,40.3412,USF Marquˆs de Marialva,USF-A,07-02-07,07-02-07,ACES Baixo Mondego,,ARS Centro,3060-123,Cantanhede,Uni?o das freguesias de Cantanhede e Pocari‡a,Cantanhede,40.341200000000001,-8.588160000000000,COIMBRA,./0.png
-8.62976,40.4011,USF as Gandras,USF-A,9/15/2008,9/15/2008,ACES Baixo Mondego,,ARS Centro,3060-318,Febres,Febres,Cantanhede,40.401100000000000,-8.629759999999999,COIMBRA,./0.png
-8.46008,40.1938,USF Mondego,USF-A,12/23/2010,12/23/2010,ACES Baixo Mondego,,ARS Centro,3045-059,Coimbra,Uni?o das freguesias de S?o Martinho do Bispo e Ribeira de Frades,Coimbra,40.193800000000003,-8.460080000000000,COIMBRA,./0.png
-8.41344,40.2126,USF Cruz de Celas,USF-B,02-05-07,07-01-09,ACES Baixo Mondego,,ARS Centro,3000-063,Coimbra,"Uni?o das freguesias de Coimbra (S‚ Nova, Santa Cruz, Almedina e S?o Bartolomeu)",Coimbra,40.212600000000002,-8.413440000000000,COIMBRA,./0.png
-8.41344,40.2126,USF Celas Sa£de,USF-B,11/18/2009,09-01-13,ACES Baixo Mondego,,ARS Centro,3000-063,Coimbra,"Uni?o das freguesias de Coimbra (S‚ Nova, Santa Cruz, Almedina e S?o Bartolomeu)",Coimbra,40.212600000000002,-8.413440000000000,COIMBRA,./0.png
-8.41373,40.1948,USF Briosa,USF-B,02-05-07,07-01-09,ACES Baixo Mondego,,ARS Centro,3030-193,Coimbra,Santo Ant¢nio dos Olivais,Coimbra,40.194800000000001,-8.413729999999999,COIMBRA,./0.png
-8.44436,40.202,USF Rainha Santa Isabel,USF-A,11/26/2012,11/26/2012,ACES Baixo Mondego,,ARS Centro,3040-006,Coimbra,Uni?o das freguesias de Santa Clara e Castelo Viegas,Coimbra,40.201999999999998,-8.444360000000000,COIMBRA,./0.png
-8.44436,40.202,USF Coimbra Sul,USF-A,10/20/2014,10/20/2014,ACES Baixo Mondego,,ARS Centro,3040-006,Coimbra,Uni?o das freguesias de Santa Clara e Castelo Viegas,Coimbra,40.201999999999998,-8.444360000000000,COIMBRA,./0.png
-8.4952,40.1108,USF Condeixa,USF-B,09-04-06,07-01-08,ACES Baixo Mondego,,ARS Centro,3150-195,Condeixa-a-Nova,Uni?o das freguesias de Condeixa-a-Velha e Condeixa-a-Nova,Condeixa-a-Nova,40.110799999999998,-8.495200000000001,COIMBRA,./0.png
-8.85403,40.156,USF S?o Juli?o da Figueira,USF-A,12/30/2006,12/30/2006,ACES Baixo Mondego,,ARS Centro,3080-134,Figueira da Foz,Buarcos,Figueira da Foz,40.155999999999999,-8.854030000000000,COIMBRA,./0.png
-8.87073,40.166,USF Buarcos,USF-B,12-11-07,01-01-10,ACES Baixo Mondego,,ARS Centro,3080-254,Figueira da Foz,Buarcos,Figueira da Foz,40.165999999999997,-8.870730000000000,COIMBRA,./0.png
-8.22538,40.1382,USF Serra da Lous?,USF-B,11/19/2007,10-01-08,ACES Pinhal Interior Norte,,ARS Centro,3200-389,Lous?,Uni?o das freguesias de Lous? e Vilarinho,Lous?,40.138199999999998,-8.225379999999999,COIMBRA,./0.png
-8.65031,40.2809,USF Araceti,USF-A,6/18/2013,6/18/2013,ACES Baixo Mondego,,ARS Centro,3140-022,Arazede,Arazede,Montemor-o-Velho,40.280900000000003,-8.650309999999999,COIMBRA,./0.png
-8.62088,40.0626,USF VitaSaurium,USF-A,10/30/2006,10/30/2006,ACES Baixo Mondego,,ARS Centro,3130-200,Soure,Soure,Soure,40.062600000000003,-8.620880000000000,COIMBRA,./0.png
-8.42464,40.2503,USF Top zio,USF-A,06-03-13,06-03-13,ACES Baixo Mondego,,ARS Centro,3020-171,Coimbra,Uni?o das freguesias de Eiras e S?o Paulo de Frades,Coimbra,40.250300000000003,-8.424640000000000,COIMBRA,./0.png
-7.26424,40.5369,USF a Ribeirinha,USF-A,7/15/2009,7/15/2009,ACES Guarda,ULS Guarda,ARS Centro,6300-745,Guarda,Guarda,Guarda,40.536900000000003,-7.264240000000000,GUARDA,./0.png
-8.97875,39.4289,USF Santa Maria Benedita,USF-B,12-04-06,07-01-08,ACES Oeste Norte,,ARS Lisboa e Vale do Tejo,2475-126,Benedita,Benedita,Alcoba‡a,39.428899999999999,-8.978750000000000,LEIRIA,./0.png
-8.97242,39.5506,USF Pedro e Inˆs,USF-B,1/18/2010,07-01-13,ACES Oeste Norte,,ARS Lisboa e Vale do Tejo,2460-051,Alcoba‡a,Uni?o das freguesias de Alcoba‡a e Vestiaria,Alcoba‡a,39.550600000000003,-8.972420000000000,LEIRIA,./0.png
-9.13945,39.4115,USF Rainha D. Leonor,USF-B,7/31/2009,01-01-12,ACES Oeste Norte,,ARS Lisboa e Vale do Tejo,2500-241,Caldas da Rainha,"Uni?o das freguesias de Caldas da Rainha - Nossa Senhora do P¢pulo, Coto e S?o Greg¢rio",Caldas da Rainha,39.411499999999997,-9.139450000000000,LEIRIA,./0.png
-8.81064,39.7371,USF D. Dinis,USF-B,11/29/2007,11-01-08,ACES Pinhal Litoral,,ARS Centro,2410-191,Leiria,"Uni?o das freguesias de Leiria, Pousos, Barreira e Cortes",Leiria,39.737099999999998,-8.810639999999999,LEIRIA,./0.png
-8.80913,39.7652,USF Santiago de Leiria,USF-B,03-01-07,07-01-09,ACES Pinhal Litoral,,ARS Centro,2400-380,Leiria,Uni?o das freguesias de Marrazes e Barosa,Leiria,39.765200000000000,-8.809130000000000,LEIRIA,./0.png
-7.81444,41.0973,USF Almedina,USF-A,12-01-14,12-01-14,ACES Douro Sul,,ARS Norte,5100-143,Lamego,Lamego (Almacave e S‚),Lamego,41.097299999999997,-7.814440000000000,VISEU,./0.png
-7.81146,41.1004,USF Douro Vita,USF-A,11/28/2007,11/28/2007,ACES Douro Sul,,ARS Norte,5100-065,Lamego,Lamego (Almacave e S‚),Lamego,41.100400000000000,-7.811460000000000,VISEU,./0.png
-7.75672,40.6037,USF Terras de Azurara,USF-A,02-03-14,02-03-14,ACES D?o Laf?es,,ARS Centro,3530-113,Mangualde,"Uni?o das freguesias de Mangualde, Mesquitela e Cunha Alta",Mangualde,40.603700000000003,-7.756720000000000,VISEU,./0.png
-7.61151,40.9723,USF Aquilino Ribeiro,USF-A,06-03-13,06-03-13,ACES Douro Sul,,ARS Norte,3620-371,Moimenta da Beira,Moimenta da Beira,Moimenta da Beira,40.972299999999997,-7.611510000000000,VISEU,./0.png
-7.85492,40.5327,USF Estrela do D?o,USF-A,5/16/2011,5/16/2011,ACES D?o Laf?es,,ARS Centro,3520-059,Nelas,Nelas,Nelas,40.532699999999998,-7.854920000000000,VISEU,./0.png
-8.17304,40.7285,USF Laf?es,USF-A,12-02-08,12-02-08,ACES D?o Laf?es,,ARS Centro,3680-078,Oliveira de Frades,"Uni?o das freguesias de Oliveira de Frades, Souto de Laf?es e Sej?es",Oliveira de Frades,40.728499999999997,-8.173040000000000,VISEU,./0.png
-8.13223,40.4072,USF Rio D?o,USF-A,11-01-13,11-01-13,ACES D?o Laf?es,,ARS Centro,3440-326,Santa Comba D?o,Uni?o das freguesias de Santa Comba D?o e Couto do Mosteiro,Santa Comba D?o,40.407200000000003,-8.132230000000000,VISEU,./0.png
-7.91505,40.6591,USF Infante D. Henrique,USF-B,07-02-07,12-01-08,ACES D?o Laf?es,,ARS Centro,3514-511,Viseu,Viseu,Viseu,40.659100000000002,-7.915050000000000,VISEU,./0.png
-7.91505,40.6591,USF Lusitana,USF-B,7/28/2009,06-01-12,ACES D?o Laf?es,,ARS Centro,3514-511,Viseu,Viseu,Viseu,40.659100000000002,-7.915050000000000,VISEU,./0.png
-7.91448,40.6449,USF Gr?o Vasco,USF-B,10/23/2006,09-01-08,ACES D?o Laf?es,,ARS Centro,3500-179,Viseu,Viseu,Viseu,40.644900000000000,-7.914480000000000,VISEU,./0.png
-7.91448,40.6449,USF Viriato,USF-B,12-09-08,04-01-11,ACES D?o Laf?es,,ARS Centro,3500-179,Viseu,Viseu,Viseu,40.644900000000000,-7.914480000000000,VISEU,./0.png
-9.19423,38.7056,USF Ajuda,USF-A,3/22/2013,3/22/2013,ACES Lisboa Ocidental e Oeiras,,ARS Lisboa e Vale do Tejo,1300-250,Lisboa,Ajuda,Lisboa,38.705599999999997,-9.194229999999999,LISBOA,./0.png
-9.22059,38.6953,USF Descobertas,USF-B,10/28/2009,01-01-12,ACES Lisboa Ocidental e Oeiras,,ARS Lisboa e Vale do Tejo,1400-145,Lisboa,Bel‚m,Lisboa,38.695300000000003,-9.220590000000000,LISBOA,./0.png
-9.35602,38.799,USF Natividade,USF-A,2/14/2008,2/14/2008,ACES Sintra,,ARS Lisboa e Vale do Tejo,2725-444,Mem Martins,Algueir?o-Mem Martins,Sintra,38.798999999999999,-9.356019999999999,LISBOA,./0.png
-9.14897,38.7598,USF do Parque,USF-B,7/30/2009,01-01-12,ACES Lisboa Norte,,ARS Lisboa e Vale do Tejo,1749-080,Lisboa,Alvalade,Lisboa,38.759799999999998,-9.148970000000000,LISBOA,./0.png
-9.21755,38.7549,USF Ribeiro Sanches,USF-A,12/28/2012,12/28/2012,ACES Amadora,,ARS Lisboa e Vale do Tejo,2700-400,Amadora,Mina de ?gua,Amadora,38.754899999999999,-9.217549999999999,LISBOA,./0.png
-9.08145,38.9817,USF Arruda,USF-A,8/23/2013,8/23/2013,ACES Estu rio do Tejo,,ARS Lisboa e Vale do Tejo,2630-243,Arruda dos Vinhos,Arruda dos Vinhos,Arruda dos Vinhos,38.981699999999996,-9.081450000000000,LISBOA,./0.png
-9.19468,38.7505,USF Gera‡?es,USF-A,2/20/2012,2/20/2012,ACES Lisboa Norte,,ARS Lisboa e Vale do Tejo,1500-244,Lisboa,Benfica,Lisboa,38.750500000000002,-9.194680000000000,LISBOA,./0.png
-9.19022,38.7461,USF Rodrigues Migu‚is,USF-B,12-04-06,06-01-08,ACES Lisboa Norte,,ARS Lisboa e Vale do Tejo,1500-588,Lisboa,Benfica,Lisboa,38.746099999999998,-9.190220000000000,LISBOA,./0.png
-9.19344,38.7608,USF Carnide Quer,USF-B,12/28/2007,10-01-09,ACES Lisboa Norte,,ARS Lisboa e Vale do Tejo,1500-210,Lisboa,Carnide,Lisboa,38.760800000000003,-9.193440000000001,LISBOA,./0.png
-9.19468,38.7505,USF da Luz,USF-B,05-04-09,01-01-12,ACES Lisboa Norte,,ARS Lisboa e Vale do Tejo,1500-244,Lisboa,Benfica,Lisboa,38.750500000000002,-9.194680000000000,LISBOA,./0.png
-9.30391,38.7704,USF S?o Marcos,USF-A,2/27/2009,2/27/2009,ACES Sintra,,ARS Lisboa e Vale do Tejo,2735-654,Cac‚m,Uni?o das freguesias de Agualva e Mira-Sintra,Sintra,38.770400000000002,-9.303910000000000,LISBOA,./0.png
-9.43028,38.8046,USF Mira-Sintra,USF-A,6/29/2009,6/29/2009,ACES Sintra,,ARS Lisboa e Vale do Tejo,2735-417,Mira Sintra,Uni?o das freguesias de Agualva e Mira-Sintra,Sintra,38.804600000000001,-9.430280000000000,LISBOA,./0.png
-9.30855,38.7696,USF Flor de Lotus,USF-A,06-11-13,06-11-13,ACES Sintra,,ARS Lisboa e Vale do Tejo,2735-304,Cac‚m,Uni?o das freguesias do Cac‚m e S?o Marcos,Sintra,38.769599999999997,-9.308550000000000,LISBOA,./0.png
-9.24246,38.7005,USF Dafundo,USF-B,09-11-06,05-01-08,ACES Lisboa Ocidental e Oeiras,,ARS Lisboa e Vale do Tejo,1495-713,Dafundo,"Uni?o das freguesias de Alg‚s, Linda-a-Velha e Cruz Quebrada-Dafundo",Oeiras,38.700499999999998,-9.242459999999999,LISBOA,./0.png
-9.38151,38.6988,USF S?o Jo?o do Estoril,USF-A,11-11-14,11-11-14,ACES Cascais,,ARS Lisboa e Vale do Tejo,2765-618,Estoril,Uni?o das freguesias de Cascais e Estoril,Cascais,38.698799999999999,-9.381510000000000,LISBOA,./0.png
-9.4072,38.7301,USF Alcais,USF-A,6/27/2008,6/27/2008,ACES Cascais,,ARS Lisboa e Vale do Tejo,2645-559,Alcabideche,Alcabideche,Cascais,38.730100000000000,-9.407200000000000,LISBOA,./0.png
-9.38151,38.6988,USF Costa do Estoril,USF-A,7/30/2009,7/30/2009,ACES Cascais,,ARS Lisboa e Vale do Tejo,2765-618,Estoril,Uni?o das freguesias de Cascais e Estoril,Cascais,38.698799999999999,-9.381510000000000,LISBOA,./0.png
-9.42111,38.7027,USF Cidadela,USF-A,9/24/2009,9/24/2009,ACES Cascais,,ARS Lisboa e Vale do Tejo,2750-437,Cascais,Uni?o das freguesias de Cascais e Estoril,Cascais,38.702700000000000,-9.421110000000001,LISBOA,./0.png
-9.4072,38.7301,USF S?o Martinho de Alcabideche,USF-A,10-02-12,10-02-12,ACES Cascais,,ARS Lisboa e Vale do Tejo,2645-559,Alcabideche,Alcabideche,Cascais,38.730100000000000,-9.407200000000000,LISBOA,./0.png
-9.38151,38.6988,USF Marginal,USF-B,4/19/2007,05-01-08,ACES Cascais,,ARS Lisboa e Vale do Tejo,2765-618,Estoril,Uni?o das freguesias de Cascais e Estoril,Cascais,38.698799999999999,-9.381510000000000,LISBOA,./0.png
-9.16321,38.8252,USF LoureSaud vel,USF-A,7/30/2009,7/30/2009,ACES Loures / Odivelas,,ARS Lisboa e Vale do Tejo,2670-487,Loures,Loures,Loures,38.825200000000002,-9.163209999999999,LISBOA,./0.png
-9.16321,38.8252,USF Parque da Cidade,USF-A,12/16/2009,12/16/2009,ACES Loures / Odivelas,,ARS Lisboa e Vale do Tejo,2670-487,Loures,Loures,Loures,38.825200000000002,-9.163209999999999,LISBOA,./0.png
-9.16113,38.8135,USF Magn¢lia,USF-B,12/28/2007,08-01-08,ACES Loures / Odivelas,,ARS Lisboa e Vale do Tejo,2660-243,Santo Ant¢nio dos Cavaleiros,Uni?o das freguesias de Santo Ant¢nio dos Cavaleiros e Frielas,Loures,38.813499999999998,-9.161130000000000,LISBOA,./0.png
-9.16113,38.8135,USF ARS M‚dica,USF-B,09-10-09,07-01-12,ACES Loures / Odivelas,,ARS Lisboa e Vale do Tejo,2670-243,Santo Ant¢nio dos Cavaleiros,Bucelas,Loures,38.813499999999998,-9.161130000000000,LISBOA,./0.png
-9.31023,39.2429,USF D. Jord?o,USF-B,7/17/2009,07-01-12,ACES Oeste Sul,,ARS Lisboa e Vale do Tejo,2530-117,Lourinh?,Uni?o das freguesias de Lourinh? e Atalaia,Lourinh?,39.242899999999999,-9.310230000000001,LISBOA,./0.png
-9.14541,38.7075,USF Ribeira Nova,USF-A,03-11-14,03-11-14,ACES Lisboa Central,,ARS Lisboa e Vale do Tejo,1200-375,Lisboa,Miseric¢rdia,Lisboa,38.707500000000003,-9.145410000000000,LISBOA,./0.png
-9.41445,38.9692,USF Ouriceira,USF-A,6/15/2011,6/15/2011,ACES Oeste Sul,,ARS Lisboa e Vale do Tejo,2655-354,Ericeira,Ericeira,Mafra,38.969200000000001,-9.414450000000000,LISBOA,./0.png
-9.33605,38.9368,USF Andreas,USF-B,12/28/2009,1/30/2014,ACES Oeste Sul,,ARS Lisboa e Vale do Tejo,2640-465,Mafra,Mafra,Mafra,38.936799999999998,-9.336050000000000,LISBOA,./0.png
-9.12266,38.7596,USF S?o Jo?o Evangelista dos L¢ios,USF-B,5/27/2008,01-01-12,ACES Lisboa Central,,ARS Lisboa e Vale do Tejo,1950-239,Lisboa,Marvila,Lisboa,38.759599999999999,-9.122660000000000,LISBOA,./0.png
-9.18102,38.7916,USF Cruzeiro,USF-A,06-02-11,06-02-11,ACES Loures / Odivelas,,ARS Lisboa e Vale do Tejo,2675-297,Odivelas,Odivelas,Odivelas,38.791600000000003,-9.181020000000000,LISBOA,./0.png
-9.16477,38.804,USF G‚nesis,USF-A,8/23/2013,8/23/2013,ACES Loures / Odivelas,,ARS Lisboa e Vale do Tejo,2620-183,P¢voa de Santo Adri?o,Uni?o das freguesias de P¢voa de Santo Adri?o e Olival Basto,Odivelas,38.804000000000002,-9.164770000000001,LISBOA,./0.png
-9.1833,38.802,USF Ramada,USF-B,12/15/2010,01-01-13,ACES Loures / Odivelas,,ARS Lisboa e Vale do Tejo,2620-488,Ramada,Uni?o das freguesias de Ramada e Cane‡as,Odivelas,38.802000000000000,-9.183299999999999,LISBOA,./0.png
-9.31784,38.6933,USF Oeiras,USF-A,5/30/2013,5/30/2013,ACES Lisboa Ocidental e Oeiras,,ARS Lisboa e Vale do Tejo,2780-163,Oeiras,"Uni?o das freguesias de Oeiras e S?o Juli?o da Barra, Pa‡o de Arcos e Caxias",Oeiras,38.693300000000001,-9.317840000000000,LISBOA,./0.png
-9.31784,38.6933,USF S?o Juli?o de Oeiras,USF-B,4/19/2007,01-01-10,ACES Lisboa Ocidental e Oeiras,,ARS Lisboa e Vale do Tejo,2780-163,Oeiras,"Uni?o das freguesias de Oeiras e S?o Juli?o da Barra, Pa‡o de Arcos e Caxias",Oeiras,38.693300000000001,-9.317840000000000,LISBOA,./0.png
-9.29501,38.7004,USF Delta,USF-B,5/16/2007,05-01-08,ACES Lisboa Ocidental e Oeiras,,ARS Lisboa e Vale do Tejo,2770-219,Pa‡o d'Arcos,"Uni?o das freguesias de Oeiras e S?o Juli?o da Barra, Pa‡o de Arcos e Caxias",Oeiras,38.700400000000002,-9.295010000000000,LISBOA,./0.png
-9.11856,38.7729,USF Jardins da Encarna‡?o,USF-A,8/14/2013,8/14/2013,ACES Lisboa Central,,ARS Lisboa e Vale do Tejo,1800-192,Lisboa,Olivais,Lisboa,38.772900000000000,-9.118560000000000,LISBOA,./0.png
-9.11856,38.7729,USF Vasco da Gama,USF-A,9/17/2013,9/17/2013,ACES Lisboa Central,,ARS Lisboa e Vale do Tejo,1800-192,Lisboa,Olivais,Lisboa,38.772900000000000,-9.118560000000000,LISBOA,./0.png
-9.33617,38.7139,USF Emergir,USF-A,4/24/2008,4/24/2008,ACES Cascais,,ARS Lisboa e Vale do Tejo,2785-780,S?o Domingos de Rana,S?o Domingos de Rana,Cascais,38.713900000000002,-9.336169999999999,LISBOA,./0.png
-9.33617,38.7139,USF S?o Domingos de Gusm?o,USF-A,4/24/2008,4/24/2008,ACES Cascais,,ARS Lisboa e Vale do Tejo,2785-780,S?o Domingos de Rana,S?o Domingos de Rana,Cascais,38.713900000000002,-9.336169999999999,LISBOA,./0.png
-9.3572,38.6975,USF Artemisa,USF-A,06-06-08,06-06-08,ACES Cascais,,ARS Lisboa e Vale do Tejo,2775-218,Parede,Uni?o das freguesias de Carcavelos e Parede,Cascais,38.697499999999998,-9.357200000000001,LISBOA,./0.png
-9.3572,38.6975,USF Kosmus,USF-A,06-02-11,06-02-11,ACES Cascais,,ARS Lisboa e Vale do Tejo,2775-218,Parede,Uni?o das freguesias de Carcavelos e Parede,Cascais,38.697499999999998,-9.357200000000001,LISBOA,./0.png
-9.13188,38.7236,USF S‚tima Colina,USF-A,11-12-12,11-12-12,ACES Lisboa Central,,ARS Lisboa e Vale do Tejo,1170-018,Lisboa,Penha de Fran‡a,Lisboa,38.723599999999998,-9.131880000000001,LISBOA,./0.png
-9.32427,38.8582,USF Lapi s,USF-A,10/18/2010,10/18/2010,ACES Sintra,,ARS Lisboa e Vale do Tejo,2715-069,Pˆro Pinheiro,"Uni?o das freguesias de Almargem do Bispo, Pˆro Pinheiro e Montelavar",Sintra,38.858199999999997,-9.324270000000000,LISBOA,./0.png
-9.05666,38.8728,USF Forte,USF-A,04-01-09,04-01-09,ACES Estu rio do Tejo,,ARS Lisboa e Vale do Tejo,2625-468,Forte da Casa,Uni?o das freguesias de P¢voa de Santa Iria e Forte da Casa,Vila Franca de Xira,38.872799999999998,-9.056660000000001,LISBOA,./0.png
-9.0826,38.8765,USF Villa Longa,USF-B,3/20/2007,05-02-08,ACES Estu rio do Tejo,,ARS Lisboa e Vale do Tejo,2625-623,Vialonga,Vialonga,Vila Franca de Xira,38.876500000000000,-9.082599999999999,LISBOA,./0.png
-9.27499,38.7523,USF M?e D ?gua,USF-A,12/20/2007,12/20/2007,ACES Sintra,,ARS Lisboa e Vale do Tejo,2745-852,Massam ,Uni?o das freguesias de Massam  e Monte Abra?o,Sintra,38.752299999999998,-9.274990000000001,LISBOA,./0.png
-9.25997,38.7637,USF Monte da Luz,USF-A,03-11-14,03-11-14,ACES Sintra,,ARS Lisboa e Vale do Tejo,2745-298,Queluz,Uni?o das freguesias de Massam  e Monte Abra?o,Sintra,38.763700000000000,-9.259969999999999,LISBOA,./0.png
-9.27499,38.7523,USF Mactam?,USF-B,07-03-08,07-01-12,ACES Sintra,,ARS Lisboa e Vale do Tejo,2745-852,Massam ,Uni?o das freguesias de Massam  e Monte Abra?o,Sintra,38.752299999999998,-9.274990000000001,LISBOA,./0.png
-9.22049,38.7459,USF Conde da Lous?,USF-A,09-01-09,09-01-09,ACES Amadora,,ARS Lisboa e Vale do Tejo,2720-120,Amadora,?guas Livres,Amadora,38.745899999999999,-9.220490000000000,LISBOA,./0.png
-9.23459,38.7583,USF Alma Mater,USF-A,08-07-13,08-07-13,ACES Amadora,,ARS Lisboa e Vale do Tejo,2700-156,Amadora,Venteira,Amadora,38.758299999999998,-9.234590000000001,LISBOA,./0.png
-9.34729,38.7516,USF AlbaSa£de,USF-A,7/21/2009,7/21/2009,ACES Sintra,,ARS Lisboa e Vale do Tejo,2635-101,Rio de Mouro,Uni?o das freguesias do Cac‚m e S?o Marcos,Sintra,38.751600000000003,-9.347289999999999,LISBOA,./0.png
-9.32669,38.7862,USF Alphamouro,USF-B,12/28/2007,01-01-11,ACES Sintra,,ARS Lisboa e Vale do Tejo,2635-367,Rio de Mouro,Rio de Mouro,Sintra,38.786200000000001,-9.326689999999999,LISBOA,./0.png
-9.12146,38.79,USF Prior Velho,USF-A,10-01-12,10-01-12,ACES Loures / Odivelas,,ARS Lisboa e Vale do Tejo,2685-356,Prior Velho,Uni?o das freguesias de Sacav‚m e Prior Velho,Loures,38.789999999999999,-9.121460000000001,LISBOA,./0.png
-9.08441,38.8435,USF Valflores,USF-A,7/23/2014,7/23/2014,ACES Loures / Odivelas,,ARS Lisboa e Vale do Tejo,2690-374,"Santa Iria de Az¢ia, Loures","Uni?o das freguesias de Santa Iria de Azoia, S?o Jo?o da Talha e Bobadela",Loures,38.843499999999999,-9.084410000000000,LISBOA,./0.png
-9.0964,38.8185,USF S?o Jo?o da Talha,USF-B,4/30/2008,09-01-09,ACES Loures / Odivelas,,ARS Lisboa e Vale do Tejo,2695-845,S?o Jo?o da Talha,"Uni?o das freguesias de Santa Iria de Azoia, S?o Jo?o da Talha e Bobadela",Loures,38.818500000000000,-9.096399999999999,LISBOA,./0.png
-9.10411,38.7778,USF Tejo,USF-B,12/28/2010,07-01-13,ACES Loures / Odivelas,,ARS Lisboa e Vale do Tejo,1885-041,Moscavide,Uni?o das freguesias de Moscavide e Portela,Loures,38.777799999999999,-9.104110000000000,LISBOA,./0.png
-9.10882,38.7909,USF Travessa da Sa£de,USF-B,10/25/2010,1/30/2014,ACES Loures / Odivelas,,ARS Lisboa e Vale do Tejo,2685-101,Sacav‚m,Uni?o das freguesias de Sacav‚m e Prior Velho,Loures,38.790900000000001,-9.108820000000000,LISBOA,./0.png
-9.11738,38.7247,USF Oriente,USF-A,5/15/2012,5/15/2012,ACES Lisboa Central,,ARS Lisboa e Vale do Tejo,1900-192,Lisboa,Penha de Fran‡a,Lisboa,38.724699999999999,-9.117380000000001,LISBOA,./0.png
-9.17306,38.7404,USF T¡lias,USF-B,12/28/2006,05-01-08,ACES Lisboa Norte,,ARS Lisboa e Vale do Tejo,1500-901,Lisboa,S?o Domingos de Benfica,Lisboa,38.740400000000001,-9.173060000000000,LISBOA,./0.png
-9.45039,38.8054,USF Colares,USF-A,12/29/2009,12/29/2009,ACES Sintra,,ARS Lisboa e Vale do Tejo,2705-351,Colares,Colares,Sintra,38.805399999999999,-9.450390000000001,LISBOA,./0.png
-9.38141,38.8024,USF Cynthia,USF-A,12/29/2012,12/29/2012,ACES Sintra,,ARS Lisboa e Vale do Tejo,2710-553,Sintra,"Uni?o das freguesias de Sintra (Santa Maria e S?o Miguel, S?o Martinho e S?o Pedro de Penaferrim)",Sintra,38.802399999999999,-9.381410000000001,LISBOA,./0.png
-9.39775,38.8147,USF Monte da Lua,USF-B,12/28/2007,09-01-08,ACES Sintra,,ARS Lisboa e Vale do Tejo,2705-635,V rzea de Sintra,"Uni?o das freguesias de Sintra (Santa Maria e S?o Miguel, S?o Martinho e S?o Pedro de Penaferrim)",Sintra,38.814700000000002,-9.397750000000000,LISBOA,./0.png
-9.14516,38.9838,USF Costa Campos,USF-A,12/16/2013,12/16/2013,ACES Oeste Sul,,ARS Lisboa e Vale do Tejo,2590-081,Sobral de Monte Agra‡o,Sobral de Monte Agra‡o,Sobral de Monte Agra‡o,38.983800000000002,-9.145160000000001,LISBOA,./0.png
-9.25697,39.0795,USF Gama,USF-B,11-07-06,05-01-08,ACES Oeste Sul,,ARS Lisboa e Vale do Tejo,2560-253,Torres Vedras,"Uni?o das freguesias de Torres Vedras (S?o Pedro, Santiago, Santa Maria do Castelo e S?o Miguel) e Matac?es",Torres Vedras,39.079500000000003,-9.256970000000001,LISBOA,./0.png
-9.25697,39.0795,USF Arandis,USF-B,12/28/2006,07-01-08,ACES Oeste Sul,,ARS Lisboa e Vale do Tejo,2560-253,Torres Vedras,"Uni?o das freguesias de Torres Vedras (S?o Pedro, Santiago, Santa Maria do Castelo e S?o Miguel) e Matac?es",Torres Vedras,39.079500000000003,-9.256970000000001,LISBOA,./0.png
-9.21755,38.7549,USF Venda Nova,USF-A,12/28/2012,12/28/2012,ACES Amadora,,ARS Lisboa e Vale do Tejo,2700-488,Amadora,Falagueira-Venda Nova,Amadora,38.754899999999999,-9.217549999999999,LISBOA,./0.png
-9.21755,38.7549,USF Amato Lusitano,USF-B,12/28/2006,06-01-09,ACES Amadora,,ARS Lisboa e Vale do Tejo,2700-488,Amadora,Falagueira-Venda Nova,Amadora,38.754899999999999,-9.217549999999999,LISBOA,./0.png
-8.9879,38.9591,USF Terras de Cira,USF-A,06-11-12,06-11-12,ACES Estu rio do Tejo,,ARS Lisboa e Vale do Tejo,2600-102,Vila Franca de Xira,Vila Franca de Xira,Vila Franca de Xira,38.959099999999999,-8.987900000000000,LISBOA,./0.png
-8.97754,39.0064,USF Castanheira do Ribatejo,USF-A,11/23/2012,11/23/2012,ACES Estu rio do Tejo,,ARS Lisboa e Vale do Tejo,2600-645,Castanheira do Ribatejo,Uni?o das freguesias de Castanheira do Ribatejo e Cachoeiras,Vila Franca de Xira,39.006399999999999,-8.977539999999999,LISBOA,./0.png
-9.15626,38.7173,USF Sofia Abecassis,USF-A,8/26/2013,8/26/2013,ACES Lisboa Central,,ARS Lisboa e Vale do Tejo,1250-210,Lisboa,Campo de Ourique,Lisboa,38.717300000000002,-9.156260000000000,LISBOA,./0.png
-8.86748,38.936,USF Samora Correia,USF-B,3/20/2007,08-01-08,ACES Estu rio do Tejo,,ARS Lisboa e Vale do Tejo,2135-089,Samora Correia,Samora Correia,Benavente,38.936000000000000,-8.867480000000000,SANTARM,./0.png
-8.78389,39.1655,USF Cartaxo Terra Viva,USF-A,9/14/2009,9/14/2009,ACES Lez¡ria,,ARS Lisboa e Vale do Tejo,2070-085,Cartaxo,Uni?o das freguesias do Cartaxo e Vale da Pinta,Cartaxo,39.165500000000002,-8.783890000000000,SANTARM,./0.png
-8.84028,39.1542,USF D. Sancho I,USF-B,02-07-07,02-01-09,ACES Lez¡ria,,ARS Lisboa e Vale do Tejo,2070-416,Pont‚vel,Pont‚vel,Cartaxo,39.154200000000003,-8.840280000000000,SANTARM,./0.png
-8.48107,39.3577,USF Chamusca,USF-A,10-01-10,10-01-10,ACES Lez¡ria,,ARS Lisboa e Vale do Tejo,2140-078,Chamusca,Uni?o das freguesias da Chamusca e Pinheiro Grande,Chamusca,39.357700000000001,-8.481070000000001,SANTARM,./0.png
-8.52765,38.9623,USF Vale do Sorraia,USF-B,3/20/2007,05-01-08,ACES Lez¡ria,,ARS Lisboa e Vale do Tejo,2100-042,Coruche,"Uni?o das freguesias de Coruche, Fajarda e Erra",Coruche,38.962299999999999,-8.527650000000000,SANTARM,./0.png
-8.47148,39.4661,USF Locomotiva,USF-B,9/15/2010,01-01-13,ACES M‚dio Tejo,,ARS Lisboa e Vale do Tejo,2330-017,Entroncamento,S?o Jo?o Baptista,Entroncamento,39.466099999999997,-8.471480000000000,SANTARM,./0.png
-8.48681,39.4039,USF CampuSa£de,USF-A,10/14/2010,10/14/2010,ACES Lez¡ria,,ARS Lisboa e Vale do Tejo,2150-204,Goleg?,Goleg?,Goleg?,39.403900000000000,-8.486810000000000,SANTARM,./0.png
-8.94526,39.3438,USF Salinas de Rio Maior,USF-A,9/15/2010,9/15/2010,ACES Lez¡ria,,ARS Lisboa e Vale do Tejo,2040-349,Rio Maior,Rio Maior,Rio Maior,39.343800000000002,-8.945259999999999,SANTARM,./0.png
-8.68068,39.2427,USF Planalto,USF-A,12-02-09,12-02-09,ACES Lez¡ria,,ARS Lisboa e Vale do Tejo,2005-193,Santar‚m,"Uni?o das freguesias de Santar‚m (Marvila), Santa Iria da Ribeira de Santar‚m, Santar‚m (S?o Salvador) e Santar‚m (S?o Nicolau)",Santar‚m,39.242699999999999,-8.680680000000001,SANTARM,./0.png
-8.70128,39.2382,USF S?o Domingos,USF-B,11-07-06,05-01-08,ACES Lez¡ria,,ARS Lisboa e Vale do Tejo,2005-257,Santar‚m,"Uni?o das freguesias de Santar‚m (Marvila), Santa Iria da Ribeira de Santar‚m, Santar‚m (S?o Salvador) e Santar‚m (S?o Nicolau)",Santar‚m,39.238199999999999,-8.701280000000001,SANTARM,./0.png
-8.6601,39.3829,USF Alviela,USF-B,12/18/2006,03-01-09,ACES Lez¡ria,,ARS Lisboa e Vale do Tejo,2000-493,Pernes,Pernes,Santar‚m,39.382899999999999,-8.660100000000000,SANTARM,./0.png
-8.68068,39.2427,USF Almeida Garrett,USF-B,10/19/2009,07-01-12,ACES Lez¡ria,,ARS Lisboa e Vale do Tejo,2005-193,Santar‚m,"Uni?o das freguesias de Santar‚m (Marvila), Santa Iria da Ribeira de Santar‚m, Santar‚m (S?o Salvador) e Santar‚m (S?o Nicolau)",Santar‚m,39.242699999999999,-8.680680000000001,SANTARM,./0.png
-8.40188,39.6017,USF Marmelais,USF-A,3/29/2007,3/29/2007,ACES M‚dio Tejo,,ARS Lisboa e Vale do Tejo,2300-449,Tomar,Uni?o das freguesias de Tomar (S?o Jo?o Baptista) e Santa Maria dos Olivais,Tomar,39.601700000000001,-8.401880000000000,SANTARM,./0.png
-8.40188,39.6017,USF Santa Maria de Tomar,USF-B,11/21/2006,05-01-08,ACES M‚dio Tejo,,ARS Lisboa e Vale do Tejo,2300-469,Tomar,Uni?o das freguesias de Tomar (S?o Jo?o Baptista) e Santa Maria dos Olivais,Tomar,39.601700000000001,-8.401880000000000,SANTARM,./0.png
-8.54629,39.4671,USF Almonda,USF-A,04-09-12,04-09-12,ACES M‚dio Tejo,,ARS Lisboa e Vale do Tejo,2350-761,Torres Novas,"Uni?o das freguesias de Torres Novas (S?o Pedro), Lapas e Ribeira Branca",Torres Novas,39.467100000000002,-8.546290000000001,SANTARM,./0.png
-8.5086,39.4461,USF Nove Torres,USF-A,11-02-12,11-02-12,ACES M‚dio Tejo,,ARS Lisboa e Vale do Tejo,2350-365,Riachos,Riachos,Torres Novas,39.446100000000001,-8.508599999999999,SANTARM,./0.png
-8.43512,39.4592,USF Barquinha,USF-A,10/15/2013,10/15/2013,ACES M‚dio Tejo,,ARS Lisboa e Vale do Tejo,2260-400,Vila Nova da Barquinha,Vila Nova da Barquinha,Vila Nova da Barquinha,39.459200000000003,-8.435120000000000,SANTARM,./0.png
-8.5753,39.6592,USF Auren,USF-A,12/28/2013,12/28/2013,ACES M‚dio Tejo,,ARS Lisboa e Vale do Tejo,2490-546,Our‚m,Nossa Senhora da Piedade,Our‚m,39.659199999999998,-8.575300000000000,SANTARM,./0.png
-8.68151,39.6337,USF F tima,USF-A,2/24/2012,2/24/2012,ACES M‚dio Tejo,,ARS Lisboa e Vale do Tejo,2495-450,F tima,F tima,Our‚m,39.633699999999997,-8.681509999999999,SANTARM,./0.png
-9.1709,38.6703,USF S?o Jo?o do Pragal,USF-B,11/21/2006,07-01-08,ACES Almada / Seixal,,ARS Lisboa e Vale do Tejo,2805-313,Almada,"Uni?o das freguesias de Almada, Cova da Piedade, Pragal e Cacilhas",Almada,38.670299999999997,-9.170900000000000,SET?BAL,./0.png
-9.19298,38.6424,USF Sobreda,USF-B,09-11-06,06-01-08,ACES Almada / Seixal,,ARS Lisboa e Vale do Tejo,2815-786,Sobreda,Uni?o das freguesias de Charneca de Caparica e Sobreda,Almada,38.642400000000002,-9.192980000000000,SET?BAL,./0.png
-9.15384,38.6778,USF Cova da Piedade,USF-B,11/21/2006,06-01-08,ACES Almada / Seixal,,ARS Lisboa e Vale do Tejo,2809-010,Almada,"Uni?o das freguesias de Almada, Cova da Piedade, Pragal e Cacilhas",Almada,38.677799999999998,-9.153840000000001,SET?BAL,./0.png
-9.1555,38.6537,USF Feij¢,USF-B,12/19/2006,07-01-08,ACES Almada / Seixal,,ARS Lisboa e Vale do Tejo,2810-170,Almada,Uni?o das freguesias de Laranjeiro e Feij¢,Almada,38.653700000000001,-9.155500000000000,SET?BAL,./0.png
-9.07911,38.6633,USF E‡a,USF-A,12/28/2009,12/28/2009,ACES Arco Ribeirinho,,ARS Lisboa e Vale do Tejo,2830-344,Barreiro,Uni?o das freguesias de Barreiro e Lavradio,Barreiro,38.663300000000000,-9.079110000000000,SET?BAL,./0.png
-9.05303,38.6695,USF Lavradio,USF-B,7/27/2009,01-01-12,ACES Arco Ribeirinho,,ARS Lisboa e Vale do Tejo,2835-423,Lavradio,Uni?o das freguesias de Barreiro e Lavradio,Barreiro,38.669499999999999,-9.053030000000000,SET?BAL,./0.png
-9.0399,38.6573,USF Santo Ant¢nio da Charneca,USF-B,5/14/2008,04-01-09,ACES Arco Ribeirinho,,ARS Lisboa e Vale do Tejo,2835-511,Barreiro,Santo Ant¢nio da Charneca,Barreiro,38.657299999999999,-9.039899999999999,SET?BAL,./0.png
-8.955,38.7029,USF Afonsoeiro,USF-A,06-01-11,06-01-11,ACES Arco Ribeirinho,,ARS Lisboa e Vale do Tejo,2870-422,Montijo,Uni?o das freguesias de Montijo e Afonsoeiro,Montijo,38.702900000000000,-8.955000000000000,SET?BAL,./0.png
-8.89721,38.5707,USF Santiago de Palmela,USF-B,12-02-08,12-02-09,ACES Arr bida,,ARS Lisboa e Vale do Tejo,2950-483,Palmela,Palmela,Palmela,38.570700000000002,-8.897209999999999,SET?BAL,./0.png
-9.08681,38.5608,USF FF Mais,USF-B,09-11-06,07-01-08,ACES Almada / Seixal,,ARS Lisboa e Vale do Tejo,2865-634,Fern?o Ferro,Fern?o Ferro,Seixal,38.560800000000000,-9.086810000000000,SET?BAL,./0.png
-9.09964,38.6408,USF Cuidar Sa£de,USF-B,07-11-07,6/30/2008,ACES Almada / Seixal,,ARS Lisboa e Vale do Tejo,2840-481,Seixal,"Uni?o das freguesias do Seixal, Arrentela e Aldeia de Paio Pires",Seixal,38.640799999999999,-9.099640000000001,SET?BAL,./0.png
-9.09964,38.6408,USF CSI-Seixal,USF-B,07-11-07,07-01-09,ACES Almada / Seixal,,ARS Lisboa e Vale do Tejo,2840-481,Seixal,"Uni?o das freguesias do Seixal, Arrentela e Aldeia de Paio Pires",Seixal,38.640799999999999,-9.099640000000001,SET?BAL,./0.png
-9.09737,38.6183,USF Torre da Marinha,USF-B,3/24/2009,01-01-12,ACES Almada / Seixal,,ARS Lisboa e Vale do Tejo,2840-384,Seixal,Sesimbra (Santiago),Sesimbra,38.618299999999998,-9.097370000000000,SET?BAL,./0.png
-9.09689,38.6008,USF Pinhal de Frades,USF-B,3/24/2009,07-01-13,ACES Almada / Seixal,,ARS Lisboa e Vale do Tejo,2840-354,Seixal,Fern?o Ferro,Seixal,38.600800000000000,-9.096890000000000,SET?BAL,./0.png
-9.11469,38.6301,USF Rosinha,USF-B,12/28/2007,09-01-08,ACES Almada / Seixal,,ARS Lisboa e Vale do Tejo,2845-422,Amora,Costa da Caparica,Almada,38.630099999999999,-9.114690000000000,SET?BAL,./0.png
-9.11368,38.6275,USF Amora Saud vel,USF-B,3/20/2008,04-01-09,ACES Almada / Seixal,,ARS Lisboa e Vale do Tejo,2845-452,Amora,Amora,Seixal,38.627499999999998,-9.113680000000000,SET?BAL,./0.png
-9.10595,38.4611,USF Castelo,USF-B,12/28/2006,10-01-09,ACES Arr bida,,ARS Lisboa e Vale do Tejo,2970-047,Sesimbra,Sesimbra (Castelo),Sesimbra,38.461100000000002,-9.105950000000000,SET?BAL,./0.png
-9.03957,38.5599,USF Conde Sa£de,USF-B,7/23/2012,12-01-14,ACES Arr bida,,ARS Lisboa e Vale do Tejo,2975-326,Quinta do Conde,Quinta do Conde,Sesimbra,38.559899999999999,-9.039569999999999,SET?BAL,./0.png
-9.14752,38.6453,USF Servir Sa£de,USF-B,09-11-06,05-01-08,ACES Almada / Seixal,,ARS Lisboa e Vale do Tejo,2855-207,Corroios,Corroios,Seixal,38.645299999999999,-9.147520000000000,SET?BAL,./0.png
-9.03827,38.6502,USF Querer Mais,USF-A,12/15/2009,12/15/2009,ACES Arco Ribeirinho,,ARS Lisboa e Vale do Tejo,2835-254,Vale da Amoreira,Uni?o das freguesias de Baixa da Banheira e Vale da Amoreira,Moita,38.650199999999998,-9.038270000000001,SET?BAL,./0.png
-7.98491,38.7197,USF Matriz,USF-A,09-01-11,09-01-11,ACES Alentejo Central,,ARS Alentejo,7040-011,Arraiolos,Arraiolos,Arraiolos,38.719700000000003,-7.984910000000000,VORA,./0.png
-7.46303,38.8057,USF Quinta da Prata,USF-A,06-02-11,06-02-11,ACES Alentejo Central,,ARS Alentejo,7150-154,Borba,Borba (Matriz),Borba,38.805700000000002,-7.463030000000000,VORA,./0.png
-7.91007,38.5786,USF Sol,USF-A,11-01-13,11-01-13,ACES Alentejo Central,,ARS Alentejo,7000-747,vora,Uni?o das freguesias de Bacelo e Senhora da Sa£de,vora,38.578600000000002,-7.910070000000000,VORA,./0.png
-7.90115,38.5686,USF Eborae,USF-B,11/28/2006,04-02-11,ACES Alentejo Central,,ARS Alentejo,7005-389,vora,Uni?o das freguesias de Bacelo e Senhora da Sa£de,vora,38.568600000000004,-7.901150000000000,VORA,./0.png
-7.90115,38.5686,USF Plan¡cie,USF-B,11/28/2006,01-01-13,ACES Alentejo Central,,ARS Alentejo,7005-389,vora,Uni?o das freguesias de Bacelo e Senhora da Sa£de,vora,38.568600000000004,-7.901150000000000,VORA,./0.png
-7.90136,38.5665,USF Salus,USF-B,4/15/2009,11-01-13,ACES Alentejo Central,,ARS Alentejo,7005-451,vora,Uni?o das freguesias de Bacelo e Senhora da Sa£de,vora,38.566499999999998,-7.901360000000000,VORA,./0.png
-8.21435,38.6523,USF Alcaides,USF-A,2/14/2011,2/14/2011,ACES Alentejo Central,,ARS Alentejo,7050-236,Montemor-o-Novo,"Uni?o das freguesias de Nossa Senhora da Vila, Nossa Senhora do Bispo e Silveiras",Montemor-o-Novo,38.652299999999997,-8.214350000000000,VORA,./0.png
-7.43566,39.2903,USF Pl tano,USF-B,04-05-10,10-01-13,ACES S?o Mamede,ULS Norte Alentejano,ARS Alentejo,7300-205,Portalegre,Uni?o das freguesias da S‚ e S?o Louren‡o,Portalegre,39.290300000000002,-7.435660000000000,PORTALEGRE,./0.png
-7.93765,37.0275,USF Al-Gharb,USF-A,10-01-07,10-01-07,ACES Algarve Central,,ARS Algarve,8009-003,Faro,Uni?o das freguesias de Faro (S‚ e S?o Pedro),Faro,37.027500000000003,-7.937650000000000,FARO,./0.png
-7.93765,37.0275,USF Farol,USF-A,12/30/2008,12/30/2008,ACES Algarve Central,,ARS Algarve,8009-003,Faro,Uni?o das freguesias de Faro (S‚ e S?o Pedro),Faro,37.027500000000003,-7.937650000000000,FARO,./0.png
-7.84028,37.0363,USF ?ncora,USF-B,10-02-06,12-01-09,ACES Algarve Central,,ARS Algarve,8700-240,Olh?o,Quelfes,Olh?o,37.036299999999997,-7.840280000000000,FARO,./0.png
-7.84028,37.0363,USF Mirante,USF-B,05-05-08,01-01-12,ACES Algarve Central,,ARS Algarve,8700-240,Olh?o,Quelfes,Olh?o,37.036299999999997,-7.840280000000000,FARO,./0.png
-8.27242,39.9001,UCSP Figueir¢ dos Vinhos,UCSP,3/20/2007,3/20/2007,ACES Pinhal Interior Norte,,ARS Centro,3260-418,Figueir¢ dos Vinhos,Uni?o das freguesias de Figueir¢ dos Vinhos e Bairradas,Figueir¢ dos Vinhos,39.900100000000002,-8.272420000000000,LEIRIA,./0.png
-7.45963,40.3127,UCSP Teixoso,UCSP,06-09-15,06-09-15,ACES Cova da Beira,,ARS Centro,6200-651,Teixoso,Uni?o das freguesias de Teixoso e Sarzedo,Covilh?,40.312700000000000,-7.459630000000000,CASTELO BRANCO,./0.png
-7.50311,40.1344,UCSP Covilh?,UCSP,6/15/2015,6/15/2015,ACES Cova da Beira,,ARS Centro,6200-507,Covilh?,Uni?o das freguesias de Covilh? e Canhoso,Covilh?,40.134399999999999,-7.503110000000000,CASTELO BRANCO,./0.png
-9.33524,38.6875,USF Carcavelos,USF-A,6/15/2015,6/15/2015,ACES Cascais,,ARS Lisboa e Vale do Tejo,2755-806,Carcavelos,Uni?o das freguesias de Carcavelos e Parede,Cascais,38.687500000000000,-9.335240000000001,LISBOA,./0.png
-9.33617,38.7139,UCSP S?o Domingos de Rana,UCSP,3/20/2007,3/20/2007,ACES Cascais,,ARS Lisboa e Vale do Tejo,2785-780,S?o Domingos de Rana,S?o Domingos de Rana,Cascais,38.713900000000002,-9.336169999999999,LISBOA,./0.png
-8.2546,37.098,USF Albufeira,USF-B,08-03-09,07-01-15,ACES Algarve Central,,ARS Algarve,8200-004,Albufeira,Albufeira e Olhos de ?gua,Albufeira,37.097999999999999,-8.254600000000000,FARO,./0.png
-8.01256,37.1456,USF Lauro‚,USF-B,07-01-11,07-01-15,ACES Algarve Central,,ARS Algarve,8100-740,Loul‚,Loul‚ (S?o Clemente),Loul‚,37.145600000000002,-8.012560000000001,FARO,./0.png
-8.54427,41.0205,USF Argoncilhe,USF-A,07-01-15,07-01-15,ACES Feira e Arouca,,ARS Norte,4505-067,Argoncilhe,Argoncilhe,Santa Maria da Feira,41.020499999999998,-8.544269999999999,AVEIRO,./0.png
-8.48639,42.069,USF Mon‡?o,USF-A,07-01-15,07-01-15,ACES Alto Minho,ULS Alto Minho,ARS Norte,4950-324,Mon‡?o,Merufe,Mon‡?o,42.069000000000003,-8.486390000000000,VIANA DO CASTELO,./0.png
-7.50311,40.1344,UCSP Fund?o,UCSP,6/29/2015,6/29/2015,ACES Cova da Beira,,ARS Centro,6230-411,Fund?o,"Uni?o das freguesias de Fund?o, Valverde, Donas, Aldeia de Joanes e Aldeia Nova do Cabo",Fund?o,40.134399999999999,-7.503110000000000,CASTELO BRANCO,./0.png
-7.52827,40.2356,UCSP Tortosendo,UCSP,6/22/2015,6/22/2015,ACES Cova da Beira,,ARS Centro,6200-722,Tortosendo,Tortosendo,Covilh?,40.235599999999998,-7.528270000000000,CASTELO BRANCO,./0.png
-8.66803,41.1638,USF Garcia de Orta,USF-B,12/30/2010,08-01-15,ACES Porto Ocidental,,ARS Norte,4150-620,Porto,"Uni?o das freguesias de Aldoar, Foz do Douro e Nevogilde",Porto,41.163800000000002,-8.668030000000000,PORTO,./0.png
-8.56068,41.3578,USF Ribeir?o,USF-B,5/16/2011,08-01-15,ACES Ave / Famalic?o,,ARS Norte,4760-715,Ribeir?o,Ribeir?o,Vila Nova de Famalic?o,41.357799999999997,-8.560680000000000,BRAGA,./0.png
-8.37712,41.2773,USF Terras de Ferreira,USF-B,4/21/2011,08-01-15,ACES Vale do Sousa Norte,,ARS Norte,4590-612,Pa‡os de Ferreira,Pa‡os de Ferreira,Pa‡os de Ferreira,41.277299999999997,-8.377120000000000,PORTO,./0.png
-8.64858,41.1544,USF Porto Douro,USF-B,05-09-11,08-01-15,ACES Porto Ocidental,,ARS Norte,4150-701,Porto,Uni?o das freguesias de Lordelo do Ouro e Massarelos,Porto,41.154400000000003,-8.648580000000001,PORTO,./0.png
-8.62078,41.1542,USF Bom Porto,USF-B,05-09-11,08-01-15,ACES Porto Ocidental,,ARS Norte,4050-046,Porto,"Uni?o das freguesias de Cedofeita, Santo Ildefonso, S‚, Miragaia, S?o Nicolau e Vit¢ria",Porto,41.154200000000003,-8.620780000000000,PORTO,./0.png
-8.03745,41.1604,USF Bai?o,USF-B,6/21/2011,08-01-15,ACES Baixo Tƒmega,,ARS Norte,4640-160,Bai?o,Uni?o das freguesias de Campelo e Ovil,Bai?o,41.160400000000003,-8.037450000000000,PORTO,./0.png
-8.58025,40.8348,USF Alpha,USF-B,12/29/2009,07-01-15,ACES Baixo Vouga,,ARS Centro,3880-501,V lega,V lega,Ovar,40.834800000000001,-8.580249999999999,AVEIRO,./0.png
-7.41844,37.1903,USF Esteva,USF-A,09-01-15,09-01-15,ACES Algarve Sotavento,,ARS Algarve,8900-211,Vila Real de Santo Ant¢nio,Vila Real de Santo Ant¢nio,Vila Real de Santo Ant¢nio,37.190300000000001,-7.418440000000000,FARO,./0.png
-8.41344,40.2126,UCSP Celas,UCSP,8/31/2015,8/31/2015,ACES Baixo Mondego,,ARS Centro,3000-011,Coimbra,"Uni?o das freguesias de Coimbra (S‚ Nova, Santa Cruz, Almedina e S?o Bartolomeu)",Coimbra,40.212600000000002,-8.413440000000000,COIMBRA,./0.png
0,0,UCSP Aguiar da Beira,UCSP,8/24/2015,8/24/2015,ACES D?o Laf?es,,ARS Centro,3570-025,Aguiar da Beira,Uni?o das freguesias de Aguiar da Beira e Coruche,Aguiar da Beira,,,GUARDA,./0.png
-7.98628,40.4378,UCSP Carregal do Sal,UCSP,8/24/2015,8/24/2015,ACES D?o Laf?es,,ARS Centro,3430-261,Carregal do Sal,Oliveira do Conde,Carregal do Sal,40.437800000000003,-7.986280000000000,VISEU,./0.png
-7.92744,40.8993,UCSP Castro Daire,UCSP,8/17/2015,8/17/2015,ACES D?o Laf?es,,ARS Centro,3600-180,Castro Daire,Castro Daire,Castro Daire,40.899299999999997,-7.927440000000000,VISEU,./0.png
-7.7016,40.6754,UCSP Penalva do Castelo,UCSP,8/24/2015,8/24/2015,ACES D?o Laf?es,,ARS Centro,3550-185,Penalva do Castelo,?nsua,Penalva do Castelo,40.675400000000003,-7.701600000000000,VISEU,./0.png
-8.06152,40.7599,UCSP S?o Pedro do Sul,UCSP,5/18/2015,5/18/2015,ACES D?o Laf?es,,ARS Centro,3660-511,S?o Pedro do Sul,"Uni?o das freguesias de S?o Pedro do Sul, V rzea e Bai?es",S?o Pedro do Sul,40.759900000000002,-8.061520000000000,VISEU,./0.png
-7.72905,40.7409,UCSP S t?o,UCSP,7/27/2015,7/27/2015,ACES D?o Laf?es,,ARS Centro,3560-156,S t?o,S t?o,S t?o,40.740900000000003,-7.729050000000000,VISEU,./0.png
-7.728,40.8499,UCSP Vila Nova de Paiva,UCSP,8/24/2015,8/24/2015,ACES D?o Laf?es,,ARS Centro,3650-221,Vila Nova de Paiva,"Uni?o das freguesias de Vila Nova de Paiva, Alhais e Fr guas",Vila Nova de Paiva,40.849899999999998,-7.728000000000000,VISEU,./0.png
-8.1141,40.7224,UCSP Vouzela,UCSP,5/18/2015,5/18/2015,ACES D?o Laf?es,,ARS Centro,3670-257,Vouzela,Uni?o das freguesias de Vouzela e Pa‡os de Vilharigues,Vouzela,40.722400000000000,-8.114100000000001,VISEU,./0.png
-8.66834,41.1753,USF Aldoar,USF-A,9/25/2015,9/25/2015,ACES Porto Ocidental,,ARS Norte,4100-503,Porto,"Uni?o das freguesias de Aldoar, Foz do Douro e Nevogilde",Porto,41.175300000000000,-8.668340000000001,PORTO,./0.png
-8.64858,41.1544,USF Lordelo do Ouro,USF-A,9/25/2015,9/25/2015,ACES Porto Ocidental,,ARS Norte,4150-701,Porto,Uni?o das freguesias de Lordelo do Ouro e Massarelos,Porto,41.154400000000003,-8.648580000000001,PORTO,./0.png
-8.5048,40.8763,USF Alian‡a,USF-A,9/15/2015,9/15/2015,ACES Aveiro Norte,,ARS Norte,3720-350,Cucuj?es,Vila de Cucuj?es,Oliveira de Azem‚is,40.876300000000001,-8.504799999999999,AVEIRO,./0.png
-9.19344,38.7608,USF Novo Mirante,USF-A,09-09-15,09-09-15,ACES Loures / Odivelas,,ARS Lisboa e Vale do Tejo,1500-210,Lisboa,Carnide,Lisboa,38.760800000000003,-9.193440000000001,LISBOA,./0.png
-9.10882,38.7909,USF Sacav‚m,USF-A,9/14/2015,9/14/2015,ACES Loures / Odivelas,,ARS Lisboa e Vale do Tejo,2685-101,Sacav‚m,Uni?o das freguesias de Sacav‚m e Prior Velho,Loures,38.790900000000001,-9.108820000000000,LISBOA,./0.png
-9.13136,38.7365,USF Fonte Luminosa,USF-A,09-01-15,09-01-15,ACES Lisboa Central,,ARS Lisboa e Vale do Tejo,1900-181,Lisboa,Areeiro,Lisboa,38.736499999999999,-9.131360000000001,LISBOA,./0.png
-8.46008,40.1938,UCSP Dr. Manuel Cunha,UCSP,9/28/2015,9/28/2015,ACES Baixo Mondego,,ARS Centro,3045-059,Coimbra,Uni?o das freguesias de S?o Martinho do Bispo e Ribeira de Frades,Coimbra,40.193800000000003,-8.460080000000000,COIMBRA,./0.png
-8.05455,40.2159,UCSP Arganil,UCSP,9/21/2015,9/21/2015,ACES Pinhal Interior Norte,,ARS Centro,3300-036,Arganil,Arganil,Arganil,40.215899999999998,-8.054550000000001,COIMBRA,./0.png
-8.11004,40.1569,UCSP G¢is,UCSP,9/28/2015,9/28/2015,ACES Pinhal Interior Norte,,ARS Centro,3330-301,G¢is,G¢is,G¢is,40.156900000000000,-8.110040000000000,COIMBRA,./0.png
-8.32767,40.0902,UCSP Miranda do Corvo,UCSP,9/14/2015,9/14/2015,ACES Pinhal Interior Norte,,ARS Centro,3220-423,Semide,Uni?o das freguesias de Semide e Rio Vide,Miranda do Corvo,40.090200000000003,-8.327669999999999,COIMBRA,./0.png
-7.85705,40.356,UCSP Oliveira do Hospital,UCSP,9/28/2015,9/28/2015,ACES Pinhal Interior Norte,,ARS Centro,3400-057,Oliveira do Hospital,Uni?o das freguesias de Oliveira do Hospital e S?o Paio de Grama‡os,Oliveira do Hospital,40.356000000000002,-7.857050000000000,COIMBRA,./0.png
-7.97447,40.0913,UCSP Pampilhosa da Serra,UCSP,9/28/2015,9/28/2015,ACES Pinhal Interior Norte,,ARS Centro,3320-206,Pampilhosa da Serra,Pampilhosa da Serra,Pampilhosa da Serra,40.091299999999997,-7.974470000000000,COIMBRA,./0.png
-8.0217,40.3624,UCSP T bua,UCSP,9/14/2015,9/14/2015,ACES Pinhal Interior Norte,,ARS Centro,3420-341,T bua,T bua,T bua,40.362400000000001,-8.021699999999999,COIMBRA,./0.png
-8.14424,39.9225,UCSP Pedr¢g?o Grande,UCSP,9/28/2015,9/28/2015,ACES Pinhal Interior Norte,,ARS Centro,3270-115,Pedrog?o Grande,Pedr¢g?o Grande,Pedr¢g?o Grande,39.922499999999999,-8.144240000000000,LEIRIA,./0.png
-8.48619,42.0691,UCSP Mon‡?o,UCSP,3/20/2007,3/20/2007,ACES Alto Minho,ULS Alto Minho,ARS Norte,4950-404,Mon‡?o,Uni?o das freguesias de Mon‡?o e Troviscoso,Mon‡?o,42.069099999999999,-8.486190000000001,VIANA DO CASTELO,./0.png
-8.47948,41.4102,USF Antonina,USF-A,10-12-15,10-12-15,ACES Ave / Famalic?o,,ARS Norte,4770-449,Requi?o,Requi?o,Vila Nova de Famalic?o,41.410200000000003,-8.479480000000001,BRAGA,./0.png
0,0,UCSP Vale de S?o Cosme,UCSP,10/15/2015,10/15/2015,ACES Ave / Famalic?o,,ARS Norte,4770-577,VALE S. COSME,,,,,#N/A,./0.png
-8.38454,39.8212,UCSP Alvai zere,UCSP,10-05-15,10-05-15,ACES Pinhal Interior Norte,,ARS Centro,3250-111,Alvai zere,Alvai zere,Alvai zere,39.821199999999997,-8.384539999999999,LEIRIA,./0.png
-8.43705,39.9136,UCSP Ansi?o,UCSP,10-01-15,10-01-15,ACES Pinhal Interior Norte,,ARS Centro,3240-148,Ansi?o,Ansi?o,Ansi?o,39.913600000000002,-8.437049999999999,LEIRIA,./0.png
-8.6469,40.6319,USF Aveiro-Aradas,USF-A,10-01-15,10-01-15,ACES Baixo Vouga,,ARS Centro,3810-042,Aveiro,Uni?o das freguesias de Gl¢ria e Vera Cruz,Aveiro,40.631900000000002,-8.646900000000000,AVEIRO,./0.png
-8.67623,40.5528,USF Senhora de Vagos,USF-A,10-01-15,10-01-15,ACES Baixo Vouga,,ARS Centro,3840-404,Vagos,Uni?o das freguesias de Vagos e Santo Ant¢nio,Vagos,40.552799999999998,-8.676230000000000,AVEIRO,./0.png
-7.91505,40.6591,USF Viseu Cidade,USF-B,7/28/2009,11-01-15,ACES D?o Laf?es,,ARS Centro,3514-511,Viseu,Viseu,Viseu,40.659100000000002,-7.915050000000000,VISEU,./0.png
-8.61259,41.1695,USF Arca d'?gua,USF-B,04-02-12,10-01-15,ACES Porto Oriental,,ARS Norte,4200-510,Porto,Paranhos,Porto,41.169499999999999,-8.612590000000001,PORTO,./0.png
-8.49586,40.8955,USF Vale do Vouga,USF-B,12/14/2009,10-01-15,ACES Aveiro Norte,,ARS Norte,3700-298,S?o Jo?o da Madeira,S?o Jo?o da Madeira,S?o Jo?o da Madeira,40.895499999999998,-8.495860000000000,AVEIRO,./0.png
-9.31784,38.6933,USF Conde de Oeiras,USF-B,7/30/2009,11-01-15,ACES Lisboa Ocidental e Oeiras,,ARS Lisboa e Vale do Tejo,2780-163,Oeiras,"Uni?o das freguesias de Oeiras e S?o Juli?o da Barra, Pa‡o de Arcos e Caxias",Oeiras,38.693300000000001,-9.317840000000000,LISBOA,./0.png
-8.82168,38.5235,USF Sado,USF-A,10/30/2015,10/30/2015,ACES Arr bida,,ARS Lisboa e Vale do Tejo,2910-357,Set£bal,Set£bal (S?o Sebasti?o),Set£bal,38.523499999999999,-8.821680000000001,SET?BAL,./0.png
-8.89381,38.5235,USF Lu¡sa Todi,USF-B,10/14/2011,11-01-15,ACES Arr bida,,ARS Lisboa e Vale do Tejo,2900-205,Set£bal,"Uni?o das freguesias de Set£bal (S?o Juli?o, Nossa Senhora da Anunciada e Santa Maria da Gra‡a)",Set£bal,38.523499999999999,-8.893810000000000,SET?BAL,./0.png
-8.21222,40.0021,UCSP Castanheira de Pˆra,UCSP,11/23/2015,11/23/2015,ACES Pinhal Interior Norte,,ARS Centro,3280-013,Castanheira de Pˆra,Uni?o das freguesias de Castanheira de Pˆra e Coentral,Castanheira de Pˆra,40.002099999999999,-8.212220000000000,LEIRIA,./0.png
-8.41373,40.1948,USF Pulsar,USF-A,12-01-15,12-01-15,ACES Baixo Mondego,,ARS Centro,3030-193,Coimbra,Santo Ant¢nio dos Olivais,Coimbra,40.194800000000001,-8.413729999999999,COIMBRA,./0.png
-7.87871,41.4088,USF Senhora da Gra‡a,USF-A,12/14/2015,12/14/2015,ACES Alto Ave,,ARS Norte,4880-168,Mondim de Basto,S?o Crist¢v?o de Mondim de Basto,Mondim de Basto,41.408799999999999,-7.878710000000000,VILA REAL,./0.png
-8.07871,41.2713,USF Amadeo de Souza Cardoso,USF-A,12/14/2015,12/14/2015,ACES Baixo Tƒmega,,ARS Norte,4600-093,Amarante,"Uni?o das freguesias de Amarante (S?o Gon‡alo), Madalena, Cepelos e Gat?o",Amarante,41.271299999999997,-8.078709999999999,PORTO,./0.png
-8.62513,41.1265,USF Bar?o do Corvo,USF-A,12/17/2015,12/17/2015,ACES Gaia,,ARS Norte,4400-037,Vila Nova de Gaia,Uni?o das freguesias de Santa Marinha e S?o Pedro da Afurada,Vila Nova de Gaia,41.126500000000000,-8.625130000000000,PORTO,./0.png
-8.26705,41.0399,USF Paiva Douro,USF-A,12/31/2015,12/31/2015,ACES Vale do Sousa Sul,,ARS Norte,4550-146,Castelo de Paiva,Uni?o das freguesias de Sobrado e Bairros,Castelo de Paiva,41.039900000000003,-8.267049999999999,AVEIRO,./0.png
-8.62593,41.2332,USF Terras da Maia,USF-A,12/30/2015,12/30/2015,ACES Maia / Valongo,,ARS Norte,4470-151,Maia,Cidade da Maia,Maia,41.233199999999997,-8.625930000000000,PORTO,./0.png
-7.56846,41.6435,USF Vidago,USF-A,12/28/2015,12/28/2015,ACES Alto Tƒmega e Barroso,,ARS Norte,5425-355,Vidago,"Vidago (Uni?o das freguesias de Vidago, Arcoss¢, Selhariz e Vilarinho das Paranheiras)",Chaves,41.643500000000003,-7.568460000000000,VILA REAL,./0.png
-7.79243,41.1659,USF R‚gua,USF-A,12/30/2015,12/30/2015,ACES Mar?o e Douro Norte,,ARS Norte,5050-275,Peso da R‚gua,Uni?o das freguesias de Peso da R‚gua e Godim,Peso da R‚gua,41.165900000000001,-7.792430000000000,VILA REAL,./0.png
-7.79243,41.1659,USF do Douro,USF-A,12/30/2015,12/30/2015,ACES Mar?o e Douro Norte,,ARS Norte,5050-275,Peso da R‚gua,Uni?o das freguesias de Peso da R‚gua e Godim,Peso da R‚gua,41.165900000000001,-7.792430000000000,VILA REAL,./0.png
-8.20287,41.3705,USF Felgaria Rubeans,USF-A,12/30/2015,12/30/2015,ACES Vale do Sousa Norte,,ARS Norte,4610-102,Felgueiras,"Uni?o das freguesias de Margaride (Santa Eul lia), V rzea, Lagares, Varziela e Moure",Felgueiras,41.370500000000000,-8.202870000000001,PORTO,./0.png
-9.36044,39.1134,USF Santa Cruz,USF-A,12-10-15,12-10-15,ACES Oeste Sul,,ARS Lisboa e Vale do Tejo,2560-521,Silveira,Silveira,Torres Vedras,39.113399999999999,-9.360440000000001,LISBOA,./0.png
-8.03928,40.5485,USF Cƒndido Figueiredo,USF-A,12/28/2015,12/28/2015,ACES D?o Laf?es,,ARS Centro,3460-012,Canas de Santa Maria,Canas de Santa Maria,Tondela,40.548499999999997,-8.039280000000000,VISEU,./0.png
0,0,UCSP Afurada,UCSP,01-01-16,01-01-16,ACES Gaia,,ARS Norte,4400-785,Vila Nova de Gaia,Uni?o das freguesias de Santa Marinha e S?o Pedro da Afurada,Vila Nova de Gaia,,,PORTO,./0.png
-8.56521,40.999,UCSP Norte (Mozelos),UCSP,01-01-16,01-01-16,ACES Feira e Arouca,,ARS Norte,4535-159,Mozelos,Mozelos,Santa Maria da Feira,40.999000000000002,-8.565210000000000,AVEIRO,./0.png
-7.5469,38.6461,UCSP Norte (Arnaldo Sampaio),UCSP,01-11-16,01-11-16,ACES Pinhal Litoral,,ARS Centro,2425-617,Monte Redondo,Uni?o das freguesias de Monte Redondo e Carreira,Leiria,38.646099999999997,-7.546900000000000,LEIRIA,./0.png
-8.73545,40.0046,UCSP Vale do Arunca,UCSP,02-01-16,02-01-16,ACES Pinhal Litoral,,ARS Centro,3105-165,Louri‡al,Louri‡al,Pombal,40.004600000000003,-8.735450000000000,LEIRIA,./0.png
-7.48688,39.8313,UCSP S?o Miguel,UCSP,2/26/2016,2/26/2016,ACES Beira Interior Sul,ULS Castelo Branco,ARS Centro,6000-491,Castelo Branco,Castelo Branco,Castelo Branco,39.831299999999999,-7.486880000000000,CASTELO BRANCO,./0.png
-8.19963,41.3654,UCSP Jugueiros,UCSP,02-01-16,02-01-16,ACES Vale do Sousa Norte,,ARS Norte,4610-351,Jugueiros,Jugueiros,Felgueiras,41.365400000000001,-8.199630000000001,PORTO,./0.png
-8.62508,39.9174,USF S?o Martinho Pombal,USF-A,04-04-16,04-04-16,ACES Pinhal Litoral,,ARS Centro,3100-462,Pombal,Pombal,Pombal,39.917400000000001,-8.625080000000001,LEIRIA,./0.png
-8.63213,40.6462,USF Esgueira Mais,USF-A,4/26/2016,4/26/2016,ACES Baixo Vouga,,ARS Centro,3800-322,Esgueira,Esgueira,Aveiro,40.646200000000000,-8.632130000000000,AVEIRO,./0.png
-8.1991,39.4604,USF D. Francisco de Almeida,USF-A,5/30/2016,5/30/2016,ACES M‚dio Tejo,,ARS Lisboa e Vale do Tejo,2200-392,Abrantes,Uni?o das freguesias de Abrantes (S?o Vicente e S?o Jo?o) e Alferrarede,Abrantes,39.460400000000000,-8.199100000000000,SANTARM,./0.png
-8.26508,41.5742,USF Maria da Fonte,USF-A,5/27/2016,5/27/2016,ACES Gerˆs / Cabreira,,ARS Norte,4830-577,P¢voa de Lanhoso,P¢voa de Lanhoso (Nossa Senhora do Amparo),P¢voa de Lanhoso,41.574199999999998,-8.265079999999999,BRAGA,./0.png
0,0,USF Foral Novo,USF-A,06-01-16,06-01-16,ACES Lez¡ria,,ARS Lisboa e Vale do Tejo,2025-037,Alcanede,Alcanede,Santar‚m,,,SANTARM,./0.png
-8.42079,41.8428,UCSP Arcos de Valdevez,UCSP,6/21/2016,6/21/2016,ACES Alto Minho,ULS Alto Minho,ARS Norte,4970-458,Arcos de Valdevez,"Uni?o das freguesias de Arcos de Valdevez (Salvador), Vila Fonche e Parada",Arcos de Valdevez,41.842799999999997,-8.420790000000000,VIANA DO CASTELO,./0.png
-8.25466,40.93,USF Novo Norte,USF-A,07-01-16,07-01-16,ACES Feira e Arouca,,ARS Norte,4540-140,Arouca,Uni?o das freguesias de Arouca e Burgo,Arouca,40.930000000000000,-8.254659999999999,AVEIRO,./0.png
-7.50234,39.8221,UCSP S?o Tiago Sa£de,UCSP,6/15/2016,6/15/2016,ACES Beira Interior Sul,ULS Castelo Branco,ARS Centro,6000-152,Castelo Branco,Castelo Branco,Castelo Branco,39.822099999999999,-7.502340000000000,CASTELO BRANCO,./0.png
-7.91448,40.6449,USF Cidade Jardim,USF-A,08-01-16,08-01-16,ACES D?o Laf?es,,ARS Centro,3500-179,Viseu,Viseu,Viseu,40.644900000000000,-7.914480000000000,VISEU,./0.png
-8.48073,40.7864,USF Entre Margens,USF-A,10-01-16,10-01-16,ACES Aveiro Norte,,ARS Norte,3720-486,Pinheiro da Bemposta,"Uni?o das freguesias de Pinheiro da Bemposta, Travanca e Palmaz",Oliveira de Azem‚is,40.786400000000000,-8.480729999999999,AVEIRO,./0.png
-7.44694,37.2168,USF Baesuris,USF-A,10-03-16,10-03-16,ACES Algarve Sotavento,,ARS Algarve,8950-219,Castro Marim,Castro Marim,Castro Marim,37.216799999999999,-7.446940000000000,FARO,./0.png
-7.65061,37.1159,USF Balsa,USF-B,12-03-07,10-01-16,ACES Algarve Sotavento,,ARS Algarve,8800-534,Tavira,Santa Luzia,Tavira,37.115900000000003,-7.650610000000000,FARO,./0.png
-8.35915,41.6298,USF AmareSa£de,USF-B,07-01-11,10-01-16,ACES Gerˆs / Cabreira,,ARS Norte,4720-393,Ferreiros AMR,"Uni?o das freguesias de Ferreiros, Prozelo e Besteiros",Amares,41.629800000000003,-8.359150000000000,BRAGA,./0.png
-8.14757,41.3237,USF Hygeia,USF-B,11-08-10,10-01-16,ACES Vale do Sousa Norte,,ARS Norte,4615-595,Lixa,Uni?o das freguesias de Vila Cova da Lixa e Borba de Godim,Felgueiras,41.323700000000002,-8.147570000000000,PORTO,./0.png
-8.45545,41.5149,USF S?o Louren‡o,USF-B,05-02-11,10-01-16,ACES Braga,,ARS Norte,4705-414,Braga,"Uni?o das freguesias de Celeir¢s, Aveleda e Vimieiro",Braga,41.514899999999997,-8.455450000000001,BRAGA,./0.png
-8.46493,40.8478,USF La Salette,USF-B,12/14/2009,10-01-16,ACES Aveiro Norte,,ARS Norte,3720-287,Oliveira de Azem‚is,"Uni?o das freguesias de Oliveira de Azem‚is, Santiago da Riba-Ul, Ul, Macinhata da Seixa e Madail",Oliveira de Azem‚is,40.847799999999999,-8.464930000000001,AVEIRO,./0.png
-8.2725,41.2063,USF Uni?o Penafidelis,USF-B,7/29/2011,10-01-16,ACES Vale do Sousa Sul,,ARS Norte,4560-682,Penafiel,Penafiel,Penafiel,41.206299999999999,-8.272500000000001,PORTO,./0.png
-8.55704,41.2167,USF Ermesinde,USF-B,07-06-09,10-01-16,ACES Maia / Valongo,,ARS Norte,4445-401,Ermesinde,Ermesinde,Valongo,41.216700000000003,-8.557040000000001,PORTO,./0.png
-8.56147,41.4507,USF Viatodos,USF-B,11/29/2010,10-01-16,ACES Barcelos / Esposende,,ARS Norte,4775-270,Viatodos,"Uni?o das freguesias de Viatodos, Grimancelos, Minhot?es e Monte de Fral?es",Barcelos,41.450699999999998,-8.561470000000000,BRAGA,./0.png
-8.57223,41.1654,USF Novo Sentido,USF-B,12-05-11,10-01-16,ACES Porto Oriental,,ARS Norte,4350-230,Porto,Campanh?,Porto,41.165399999999998,-8.572229999999999,PORTO,./0.png
-8.76127,41.3859,USF Corino de Andrade,USF-B,12/30/2010,10-01-16,ACES P¢voa do Varzim / Vila do Conde,,ARS Norte,4490-602,P¢voa de Varzim,"Uni?o das freguesias da P¢voa de Varzim, Beiriz e Argivai",P¢voa de Varzim,41.385899999999999,-8.761270000000000,PORTO,./0.png
-8.26508,41.5742,USF d'As Terras de Lanhoso,USF-B,12/30/2009,10-01-16,ACES Gerˆs / Cabreira,,ARS Norte,4830-577,P¢voa de Lanhoso,P¢voa de Lanhoso (Nossa Senhora do Amparo),P¢voa de Lanhoso,41.574199999999998,-8.265079999999999,BRAGA,./0.png
-8.62078,41.1542,USF An¡bal Cunha,USF-B,10-04-12,10-01-16,ACES Porto Ocidental,,ARS Norte,4050-046,Porto,"Uni?o das freguesias de Cedofeita, Santo Ildefonso, S‚, Miragaia, S?o Nicolau e Vit¢ria",Porto,41.154200000000003,-8.620780000000000,PORTO,./0.png
-7.92744,40.8993,USF Montemuro,USF-B,12-09-10,10-01-16,ACES D?o Laf?es,,ARS Centro,3600-180,Castro Daire,Castro Daire,Castro Daire,40.899299999999997,-7.927440000000000,VISEU,./0.png
-8.48297,41.3468,USF Vil'Alva,USF-B,11/28/2008,10-01-16,ACES Santo Tirso / Trofa,,ARS Norte,4780-484,Santo Tirso,"Uni?o das freguesias de Santo Tirso, Couto (Santa Cristina e S?o Miguel) e Burg?es",Santo Tirso,41.346800000000002,-8.482970000000000,PORTO,./0.png
-7.41844,37.1903,USF Levante,USF-B,06-01-15,10-01-16,ACES Algarve Sotavento,,ARS Algarve,8900-211,Vila Real de Santo Ant¢nio,Vila Real de Santo Ant¢nio,Vila Real de Santo Ant¢nio,37.190300000000001,-7.418440000000000,FARO,./0.png
-9.16445,38.7143,USF Santo Condest vel,USF-B,12/28/2010,10-01-16,ACES Lisboa Ocidental e Oeiras,,ARS Lisboa e Vale do Tejo,1350-230,Lisboa,Campo de Ourique,Lisboa,38.714300000000001,-9.164450000000000,LISBOA,./0.png
-9.23459,38.7583,USF Arco-?ris,USF-B,10-12-09,10-01-16,ACES Amadora,,ARS Lisboa e Vale do Tejo,2704-511,Amadora,Venteira,Amadora,38.758299999999998,-9.234590000000001,LISBOA,./0.png
-9.12038,38.7254,USF Monte Pedral,USF-B,12-12-09,10-01-16,ACES Lisboa Central,,ARS Lisboa e Vale do Tejo,1900-028,Lisboa,Penha de Fran‡a,Lisboa,38.725400000000000,-9.120380000000001,LISBOA,./0.png
-9.06926,39.5957,USF Global,USF-B,07-01-13,10-01-16,ACES Oeste Norte,,ARS Lisboa e Vale do Tejo,2450-065,Nazar‚,Nazar‚,Nazar‚,39.595700000000001,-9.069260000000000,LEIRIA,./0.png
-8.81076,39.7365,USF Cidade do Lis,USF-B,09-03-13,11-01-16,ACES Pinhal Litoral,,ARS Centro,2410-272,Leiria,"Uni?o das freguesias de Leiria, Pousos, Barreira e Cortes",Leiria,39.736499999999999,-8.810760000000000,LEIRIA,./0.png
-8.21435,38.6523,USF Foral,USF-A,11-01-16,11-01-16,ACES Alentejo Central,,ARS Alentejo,7050-236,Montemor-o-Novo,"Uni?o das freguesias de Nossa Senhora da Vila, Nossa Senhora do Bispo e Silveiras",Montemor-o-Novo,38.652299999999997,-8.214350000000000,VORA,./0.png
-8.77232,41.7087,USF Cuidarte,USF-A,11-01-16,11-01-16,ACES Alto Minho,ULS Alto Minho,ARS Norte,4925-083,Portuzelo,Santa Marta de Portuzelo,Viana do Castelo,41.708700000000000,-8.772320000000001,VIANA DO CASTELO,./0.png
-9.13848,38.7148,USF da Baixa,USF-A,11/14/2016,11/14/2016,ACES Lisboa Central,,ARS Lisboa e Vale do Tejo,1100-390,Lisboa,Santa Maria Maior,Lisboa,38.714799999999997,-9.138479999999999,LISBOA,./0.png
-9.10043,38.78,USF Moscavide,USF-A,11/15/2016,11/15/2016,ACES Loures / Odivelas,,ARS Lisboa e Vale do Tejo,1885-100,Moscavide,Uni?o das freguesias de Moscavide e Portela,Loures,38.780000000000001,-9.100429999999999,LISBOA,./0.png
-7.75807,40.5964,USF Mangualde,USF-A,11/24/2016,11/24/2016,ACES D?o Laf?es,,ARS Centro,3534-010,Mangualde,"Uni?o das freguesias de Mangualde, Mesquitela e Cunha Alta",Mangualde,40.596400000000003,-7.758070000000000,VISEU,./0.png
-8.35915,41.6298,USF Entre Homem e C vado,USF-A,11/25/2016,11/25/2016,ACES Gerˆs / Cabreira,,ARS Norte,4720-393,Ferreiros AMR,"Uni?o das freguesias de Ferreiros, Prozelo e Besteiros",Amares,41.629800000000003,-8.359150000000000,BRAGA,./0.png
-9.1833,38.802,USF Colina de Odivelas,USF-A,11/29/2016,11/29/2016,ACES Loures / Odivelas,,ARS Lisboa e Vale do Tejo,2620-257,Ramada - Odivelas,Arruda dos Vinhos,Arruda dos Vinhos,38.802000000000000,-9.183299999999999,LISBOA,./0.png
-8.41449,41.5464,USF Salutis,USF-A,12-07-16,12-07-16,ACES Braga,,ARS Norte,4715-402,Braga,Uni?o das freguesias de Braga (S?o Jos‚ de S?o L zaro e S?o Jo?o do Souto),Braga,41.546399999999998,-8.414490000000001,BRAGA,./0.png
-9.23836,38.7282,USF Lusa,USF-A,12/14/2016,12/14/2016,ACES Lisboa Ocidental e Oeiras,,ARS Lisboa e Vale do Tejo,2795-110,Carnaxide,Uni?o das freguesias de Carnaxide e Queijas,Oeiras,38.728200000000001,-9.238360000000000,LISBOA,./0.png
-8.54561,37.138,USF Atlƒntico Sul,USF-A,12-12-16,12-12-16,ACES Algarve Barlavento,,ARS Algarve,8500-723,Portim?o,Portim?o,Portim?o,37.137999999999998,-8.545610000000000,FARO,./0.png
-8.14636,41.2214,USF Terras do Romƒnico,USF-A,12/16/2016,12/16/2016,ACES Baixo Tƒmega,,ARS Norte,4635-508,Toutosa,Santo Isidoro e Livra‡?o,Marco de Canaveses,41.221400000000003,-8.146360000000000,PORTO,./0.png
-9.331,38.7957,USF Tapada,USF-A,12/15/2016,12/15/2016,ACES Sintra,,ARS Lisboa e Vale do Tejo,2725-556,Tapada das Mercˆs,Algueir?o-Mem Martins,Sintra,38.795699999999997,-9.331000000000000,LISBOA,./0.png
-9.31023,39.2429,USF S?o Sebasti?o,USF-A,12/15/2016,12/15/2016,ACES Oeste Sul,,ARS Lisboa e Vale do Tejo,2530-117,Lourinh?,Uni?o das freguesias de Lourinh? e Atalaia,Lourinh?,39.242899999999999,-9.310230000000001,LISBOA,./0.png
-8.39266,40.0271,USF Penela,USF-B,11/20/2013,12/16/2016,ACES Pinhal Interior Norte,,ARS Centro,3230-274,Penela,"Uni?o das freguesias de S?o Miguel, Santa Euf‚mia e Raba‡al",Penela,40.027099999999997,-8.392659999999999,COIMBRA,./0.png
-8.4952,40.1108,USF Fernando Namora,USF-B,11-12-12,12/16/2016,ACES Baixo Mondego,,ARS Centro,3150-195,Condeixa-a-Nova,Uni?o das freguesias de Condeixa-a-Velha e Condeixa-a-Nova,Condeixa-a-Nova,40.110799999999998,-8.495200000000001,COIMBRA,./0.png
-7.91007,38.5786,USF Lusitƒnia,USF-B,09-05-11,12/16/2016,ACES Alentejo Central,,ARS Alentejo,7000-747,vora,Uni?o das freguesias de Bacelo e Senhora da Sa£de,vora,38.578600000000002,-7.910070000000000,VORA,./0.png
-8.41449,41.5464,USF S?o Jo?o de Braga,USF-B,05-04-09,12/16/2016,ACES Braga,,ARS Norte,4715-402,Braga,Uni?o das freguesias de Braga (S?o Jos‚ de S?o L zaro e S?o Jo?o do Souto),Braga,41.546399999999998,-8.414490000000001,BRAGA,./0.png
-8.17168,41.4465,USF Montelongo,USF-B,06-03-13,12/16/2016,ACES Alto Ave,,ARS Norte,4820-273,Fafe,Fafe,Fafe,41.446500000000000,-8.171680000000000,BRAGA,./0.png
0,0,USF Barrosas Sa£de,USF-A,12/23/2016,12/23/2016,ACES Vale do Sousa Norte,,ARS Norte,4650-135,Id?es,Id?es,Felgueiras,,,PORTO,./0.png
-8.41373,40.1948,USF Norton de Matos,USF-A,12/30/2016,12/30/2016,ACES Baixo Mondego,,ARS Centro,3030-193,Coimbra,Santo Ant¢nio dos Olivais,Coimbra,40.194800000000001,-8.413729999999999,COIMBRA,./0.png
-8.14973,41.187,USF Tƒmega,USF-A,12/30/2016,12/30/2016,ACES Baixo Tƒmega,,ARS Norte,4630-409,Marco de Canaveses,Marco,Marco de Canaveses,41.186999999999998,-8.149730000000000,PORTO,./0.png
-8.21472,41.1148,USF Bem Viver,USF-A,12/28/2016,12/28/2016,ACES Baixo Tƒmega,,ARS Norte,4625-003,Bem Viver,Bem Viver,Marco de Canaveses,41.114800000000002,-8.214720000000000,PORTO,./0.png
-9.19954,38.627,USF Charneca do Sol,USF-A,12/29/2016,12/29/2016,ACES Almada / Seixal,,ARS Lisboa e Vale do Tejo,2820-225,Charneca da Caparica,Uni?o das freguesias de Charneca de Caparica e Sobreda,Almada,38.627000000000002,-9.199540000000001,SET?BAL,./0.png
-9.20032,38.7485,USF Benfica Jardim,USF-A,12/30/2016,12/30/2016,ACES Lisboa Norte,,ARS Lisboa e Vale do Tejo,1500-310,Lisboa,Benfica,Lisboa,38.748500000000000,-9.200320000000000,LISBOA,./0.png
-8.25739,40.2115,USF Santo Andr‚ de Poiares,USF-A,3/20/2017,3/20/2017,ACES Pinhal Interior Norte,,ARS Centro,3350-152,Vila Nova de Poiares,Poiares (Santo Andr‚),Vila Nova de Poiares,40.211500000000001,-8.257389999999999,COIMBRA,./0.png
-9.18782,38.6697,USF Vista Tejo,USF-B,04-01-17,04-01-17,ACES Almada / Seixal,,ARS Lisboa e Vale do Tejo,2825-023,Monte da Caparica,Costa da Caparica,Almada,38.669699999999999,-9.187820000000000,SET?BAL,./0.png
-9.18782,38.6697,USF Poente,USF-B,04-01-17,04-01-17,ACES Almada / Seixal,,ARS Lisboa e Vale do Tejo,2825-023,Monte da Caparica,Costa da Caparica,Almada,38.669699999999999,-9.187820000000000,SET?BAL,./0.png
-9.06765,38.8624,USF Reynaldo dos Santos,USF-A,3/15/2017,3/15/2017,ACES Estu rio do Tejo,,ARS Lisboa e Vale do Tejo,2625-215,P¢voa de Santa Iria,Uni?o das freguesias de P¢voa de Santa Iria e Forte da Casa,Vila Franca de Xira,38.862400000000001,-9.067650000000000,LISBOA,./0.png
-8.75569,40.3172,USF Progresso e Sa£de,USF-A,05-02-17,05-02-17,ACES Baixo Mondego,,ARS Centro,3060-716,Tocha,Tocha,Cantanhede,40.317200000000000,-8.755690000000000,COIMBRA,./0.png
-8.64064,40.3259,USF SalusVida,USF-A,05-02-17,05-02-17,ACES Baixo Mondego,,ARS Centro,3060-094,Cadima,Cadima,Cantanhede,40.325899999999997,-8.640639999999999,COIMBRA,./0.png
-8.78225,39.9495,USF Pombal Oeste,USF-A,5/29/2017,5/29/2017,ACES Pinhal Litoral,,ARS Centro,3105-081,Guia - Pombal,"Uni?o das freguesias de Guia, Ilha e Mata Mourisca",Pombal,39.949500000000000,-8.782249999999999,LEIRIA,./0.png
-8.80953,39.765,UCSP Dr. Arnaldo Sampaio,UCSP,3/20/2007,3/20/2007,ACES Pinhal Litoral,,ARS Centro,2419-014,Leiria,Uni?o das freguesias de Marrazes e Barosa,Leiria,39.765000000000001,-8.809530000000001,LEIRIA,./0.png
-8.52284,41.5959,UCSP Cerv?es,UCSP,06-01-17,06-01-17,ACES Gerˆs / Cabreira,,ARS Norte,4730-100,Cerv?es,Cerv?es,Vila Verde,41.595900000000000,-8.522840000000000,BRAGA,./0.png
-9.38267,39.3657,USF Mar‚s,USF-A,07-03-17,07-03-17,ACES Oeste Norte,,ARS Lisboa e Vale do Tejo,2520-446,Peniche,Peniche,Peniche,39.365699999999997,-9.382669999999999,LEIRIA,./0.png
-7.93765,37.0275,USF Oss¢noba,USF-A,8/21/2017,8/21/2017,ACES Algarve Central,,ARS Algarve,8009-003,Faro,Uni?o das freguesias de Faro (S‚ e S?o Pedro),Faro,37.027500000000003,-7.937650000000000,FARO,./0.png
-9.19954,38.627,USF Nova Caparica,USF-A,11-02-17,11-02-17,ACES Almada / Seixal,,ARS Lisboa e Vale do Tejo,2820-225,Charneca da Caparica,Uni?o das freguesias de Charneca de Caparica e Sobreda,Almada,38.627000000000002,-9.199540000000001,SET?BAL,./0.png
-8.318,41.5602,US Braga,UCSP,01-01-14,01-01-14,ACES Braga,,ARS Norte,4715-470,Pedralva,Pedralva,Braga,41.560200000000002,-8.318000000000000,BRAGA,./0.png
-9.22791,38.7034,USF Linha de Alg‚s,USF-A,11/14/2017,11/14/2017,ACES Lisboa Ocidental e Oeiras,,ARS Lisboa e Vale do Tejo,1495-087,Alg‚s,"Uni?o das freguesias de Alg‚s, Linda-a-Velha e Cruz Quebrada-Dafundo",Oeiras,38.703400000000002,-9.227910000000000,LISBOA,./0.png
-7.34226,38.3806,UCSP Mour?o,UCSP,10-02-17,10-02-17,ACES Alentejo Central,,ARS Alentejo,7240-228,Mour?o,Mour?o,Mour?o,38.380600000000001,-7.342260000000000,VORA,./0.png
-8.43618,40.2163,USF Coimbra Centro,USF-A,12-04-17,12-04-17,ACES Baixo Mondego,,ARS Centro,3000-174,Coimbra,"Uni?o das freguesias de Coimbra (S‚ Nova, Santa Cruz, Almedina e S?o Bartolomeu)",Coimbra,40.216299999999997,-8.436180000000000,COIMBRA,./0.png
0,0,USF Alpiar‡a,USF-A,12/15/2017,12/15/2017,ACES Lez¡ria,,ARS Lisboa e Vale do Tejo,2090-025,Alpiar‡a,Alpiar‡a,Alpiar‡a,,,SANTARM,./0.png
-9.25261,38.7556,USF D. Maria I,USF-A,12/18/2017,12/18/2017,ACES Sintra,,ARS Lisboa e Vale do Tejo,2745-107,Queluz,Uni?o das freguesias de Queluz e Belasÿ,Sintra,38.755600000000001,-9.252610000000001,LISBOA,./0.png
-8.9179,38.6313,USF Pinhal Sa£de,USF-A,12/18/2017,12/18/2017,ACES Arr bida,,ARS Lisboa e Vale do Tejo,2955-194,Pinhal Novo,Pinhal Novo,Palmela,38.631300000000003,-8.917899999999999,SET?BAL,./0.png
-9.24468,38.9285,USF Sete Moinhos,USF-A,12/21/2017,12/21/2017,ACES Oeste Sul,,ARS Lisboa e Vale do Tejo,2665-293,Malveira,Uni?o das freguesias de Malveira e S?o Miguel de Alcain‡a,Mafra,38.928500000000000,-9.244680000000001,LISBOA,./0.png
-9.32669,38.7862,USF Rio de Mouro,USF-A,12/28/2017,12/28/2017,ACES Sintra,,ARS Lisboa e Vale do Tejo,2635-367,Rio de Mouro,Rio de Mouro,Sintra,38.786200000000001,-9.326689999999999,LISBOA,./0.png
-9.04349,38.9074,USF Bom Sucesso,USF-A,12/29/2017,12/29/2017,ACES Estu rio do Tejo,,ARS Lisboa e Vale do Tejo,2615-300,Arcena,Uni?o das freguesias de Alverca do Ribatejo e Sobralinho,Vila Franca de Xira,38.907400000000003,-9.043490000000000,LISBOA,./0.png
-9.3572,38.6975,USF Mare,USF-A,02-06-18,02-06-18,ACES Cascais,,ARS Lisboa e Vale do Tejo,2775-218,Parede,Uni?o das freguesias de Carcavelos e Parede,Cascais,38.697499999999998,-9.357200000000001,LISBOA,./0.png
-7.58619,38.8485,USF Extremus,USF-A,02-01-18,02-01-18,ACES Alentejo Central,,ARS Alentejo,7100-500,Estremoz,Uni?o das freguesias de Estremoz (Santa Maria e Santo Andr‚),Estremoz,38.848500000000001,-7.586190000000000,VORA,./0.png
-8.63207,41.4382,USF Martim,USF-A,2/19/2018,2/19/2018,ACES Barcelos / Esposende,,ARS Norte,4755-305,Martim,Martim,Barcelos,41.438200000000002,-8.632070000000001,BRAGA,./0.png
-8.57732,41.1931,USF Despertar,USF-A,2/19/2018,2/19/2018,ACES Gondomar,,ARS Norte,4435-025,Rio Tinto,Rio Tinto,Gondomar,41.193100000000001,-8.577320000000000,PORTO,./0.png
-8.68396,41.5034,UCSP Sequeade / Silveiros,UCSP,2/19/2018,2/19/2018,ACES Barcelos / Esposende,,ARS Norte,4755-516,Sequeade,Uni?o das freguesias de Sequeade e Bastu‡o (S?o Jo?o e Santo Estev?o),Barcelos,41.503399999999999,-8.683960000000001,BRAGA,./0.png
-9.15384,38.6778,USF Almada,USF-A,04-04-18,04-04-18,ACES Almada / Seixal,,ARS Lisboa e Vale do Tejo,2809-010,Almada,"Uni?o das freguesias de Almada, Cova da Piedade, Pragal e Cacilhas",Almada,38.677799999999998,-9.153840000000001,SET?BAL,./0.png
-8.68834,37.1018,USF Amendoeira,USF-A,4/13/2018,4/13/2018,ACES Algarve Barlavento,,ARS Algarve,8600-296,Lagos,Uni?o das freguesias de Lagos (S?o Sebasti?o e Santa Maria),Lagos,37.101799999999997,-8.688340000000000,FARO,./0.png
-8.17367,39.0786,UCSP Ponte de Sor e Montargil,UCSP,3/20/2007,3/20/2007,ACES S?o Mamede,ULS Norte Alentejano,ARS Alentejo,7425-128,Montargil,Montargil,Ponte de Sor,39.078600000000002,-8.173670000000000,PORTALEGRE,./0.png
-8.08415,40.5173,USF Tondela,USF-A,4/16/2018,4/16/2018,ACES D?o Laf?es,,ARS Centro,3460-541,Tondela,Uni?o das freguesias de Tondela e Nandufe,Tondela,40.517299999999999,-8.084149999999999,VISEU,./0.png
-8.32836,40.0902,USF Trilhos Due‡a,USF-A,05-07-18,05-07-18,ACES Pinhal Interior Norte,,ARS Centro,3220-185,Miranda do Corvo,Miranda do Corvo,Miranda do Corvo,40.090200000000003,-8.328360000000000,COIMBRA,./0.png
-8.93116,39.7422,USF Vitrius,USF-A,05-10-18,05-10-18,ACES Pinhal Litoral,,ARS Centro,2430-069,Marinha Grande,Marinha Grande,Marinha Grande,39.742199999999997,-8.931160000000000,LEIRIA,./0.png
-8.54629,39.4671,USF Cardilium,USF-A,5/28/2018,5/28/2018,ACES M‚dio Tejo,,ARS Lisboa e Vale do Tejo,2350-761,Torres Novas,"Uni?o das freguesias de Torres Novas (S?o Pedro), Lapas e Ribeira Branca",Torres Novas,39.467100000000002,-8.546290000000001,SANTARM,./0.png
-8.54903,40.5425,USF Flor d'Areosa,USF-A,6/14/2018,6/14/2018,ACES Baixo Vouga,,ARS Centro,3770-059,Oi?,Oi?,Oliveira do Bairro,40.542499999999997,-8.549030000000000,AVEIRO,./0.png
-9.25261,38.7556,UCSP Queluz,UCSP,3/20/2007,3/20/2007,ACES Sintra,,ARS Lisboa e Vale do Tejo,2745-107,Queluz,Uni?o das freguesias de Queluz e Belasÿ,Sintra,38.755600000000001,-9.252610000000001,LISBOA,./0.png
-8.90155,39.6009,USF Novos Horizontes,USF-A,09-03-18,09-03-18,ACES Pinhal Litoral,,ARS Centro,2480-375,Juncal,Juncal,Porto de M¢s,39.600900000000003,-8.901550000000000,LEIRIA,./0.png
-8.3322,41.2047,USF Paredes,USF-A,09-03-18,09-03-18,ACES Vale do Sousa Sul,,ARS Norte,4580-029,Paredes,Paredes,Paredes,41.204700000000003,-8.332200000000000,PORTO,./0.png
-8.49386,40.5173,USF Vale do C‚rtima,USF-A,09-07-18,09-07-18,ACES Baixo Vouga,,ARS Centro,3770-219,Oliveira do Bairro,Oliveira do Bairro,Oliveira do Bairro,40.517299999999999,-8.493860000000000,AVEIRO,./0.png
-9.13447,38.7241,USF Almirante,USF-A,11/19/2018,11/19/2018,ACES Lisboa Central,,ARS Lisboa e Vale do Tejo,1170-201,Lisboa,Penha de Fran‡a,Lisboa,38.724100000000000,-9.134470000000000,LISBOA,./0.png
-8.94526,39.3438,USF Villa Romana,USF-A,11-01-18,11-01-18,ACES Lez¡ria,,ARS Lisboa e Vale do Tejo,2040-349,Rio Maior,Rio Maior,Rio Maior,39.343800000000002,-8.945259999999999,SANTARM,./0.png
-7.93765,37.0275,USF Golfinho,USF-A,11-12-18,11-12-18,ACES Algarve Central,,ARS Algarve,8009-003,Faro,Uni?o das freguesias de Faro (S‚ e S?o Pedro),Faro,37.027500000000003,-7.937650000000000,FARO,./0.png
-7.89722,40.5043,USF Cora‡?o da Beira,USF-A,09-11-18,09-11-18,ACES D?o Laf?es,,ARS Centro,3525-070,Canas de Senhorim,Canas de Senhorim,Nelas,40.504300000000001,-7.897220000000000,VISEU,./0.png
-8.57712,41.1038,USF Vilar Sa£de,USF-A,10-01-18,10-01-18,ACES Gaia,,ARS Norte,4430-393,Vila Nova de Gaia,Vilar de Andorinho,Vila Nova de Gaia,41.103800000000000,-8.577120000000001,PORTO,./0.png
-9.00051,39.6678,USF Pinhal do Rei,USF-B,12/30/2009,10-01-18,ACES Oeste Norte,,ARS Lisboa e Vale do Tejo,2445-261,Pataias,Uni?o das freguesias de Pataias e Martingan‡a,Alcoba‡a,39.667800000000000,-9.000510000000000,LEIRIA,./0.png
-8.54545,41.2261,USF Bela Sa£de,USF-B,11-05-12,10-01-18,ACES Maia / Valongo,,ARS Norte,4445-344,Ermesinde,Ermesinde,Valongo,41.226100000000002,-8.545450000000001,PORTO,./0.png
-8.42079,41.8428,USF Vale do Vez,USF-B,10/20/2008,10-01-18,ACES Alto Minho,ULS Alto Minho,ARS Norte,4970-458,Arcos de Valdevez,"Uni?o das freguesias de Arcos de Valdevez (Salvador), Vila Fonche e Parada",Arcos de Valdevez,41.842799999999997,-8.420790000000000,VIANA DO CASTELO,./0.png
-8.52665,41.4066,USF Nova Esta‡?o,USF-B,06-11-13,10-01-18,ACES Ave / Famalic?o,,ARS Norte,4760-101,Vila Nova de Famalic?o,Uni?o das freguesias de Vila Nova de Famalic?o e Calend rio,Vila Nova de Famalic?o,41.406599999999997,-8.526650000000000,BRAGA,./0.png
-8.69074,41.2947,USF Modivas,USF-B,12/30/2010,10-01-18,ACES P¢voa do Varzim / Vila do Conde,,ARS Norte,4485-591,Modivas,Modivas,Vila do Conde,41.294699999999999,-8.690740000000000,PORTO,./0.png
-8.41449,41.5464,USF Sanus Carand ,USF-B,12-10-12,10-01-18,ACES Braga,,ARS Norte,4715-402,Braga,Uni?o das freguesias de Braga (S?o Jos‚ de S?o L zaro e S?o Jo?o do Souto),Braga,41.546399999999998,-8.414490000000001,BRAGA,./0.png
-8.65726,41.1913,USF Caravela,USF-B,10-03-11,10-01-18,ACES Matosinhos,ULS Matosinhos,ARS Norte,4460-352,Senhora da Hora,Uni?o das freguesias de S?o Mamede de Infesta e Senhora da Hora,Matosinhos,41.191299999999998,-8.657260000000001,PORTO,./0.png
-8.392,40.8478,USF Calƒmbriga,USF-B,12/14/2009,10-01-18,ACES Aveiro Norte,,ARS Norte,3730-250,Vale de Cambra,"Uni?o das freguesias de Vila Ch?, Codal e Vila Cova de Perrinho",Vale de Cambra,40.847799999999999,-8.391999999999999,AVEIRO,./0.png
-8.54545,41.2261,USF Em¡lio Peres,USF-B,05-01-13,10-01-18,ACES Maia / Valongo,,ARS Norte,4445-344,Ermesinde,Ermesinde,Valongo,41.226100000000002,-8.545450000000001,PORTO,./0.png
-9.15854,38.7661,USF das Conchas,USF-B,7/30/2010,10-01-18,ACES Lisboa Norte,,ARS Lisboa e Vale do Tejo,1769-001,Lisboa,Lumiar,Lisboa,38.766100000000002,-9.158540000000000,LISBOA,./0.png
-8.27801,41.2807,USF Nova Lousada,USF-B,07-01-14,10-01-18,ACES Vale do Sousa Norte,,ARS Norte,4620-697,Lousada,"Uni?o das freguesias de Silvares, Pias, Nogueira e Alvarenga",Lousada,41.280700000000003,-8.278010000000000,PORTO,./0.png
-9.07778,38.6548,USF Ribeirinha,USF-B,2/25/2012,10-01-18,ACES Arco Ribeirinho,,ARS Lisboa e Vale do Tejo,2830-245,Barreiro,"Uni?o das freguesias de Alto do Seixalinho, Santo Andr‚ e Verderena",Barreiro,38.654800000000002,-9.077780000000001,SET?BAL,./0.png
-9.15346,38.7173,USF do Arco,USF-B,11/15/2011,10-01-18,ACES Lisboa Central,,ARS Lisboa e Vale do Tejo,1250-169,Lisboa,Santo Ant¢nio,Lisboa,38.717300000000002,-9.153460000000001,LISBOA,./0.png
-8.91294,38.5245,USF S?o Filipe,USF-B,6/19/2012,10-01-18,ACES Arr bida,,ARS Lisboa e Vale do Tejo,2900-264,Set£bal,"Uni?o das freguesias de Set£bal (S?o Juli?o, Nossa Senhora da Anunciada e Santa Maria da Gra‡a)",Set£bal,38.524500000000003,-8.912940000000001,SET?BAL,./0.png
-8.82861,41.6948,USF Tiago de Almeida,USF-B,12-02-13,10-01-18,ACES Alto Minho,ULS Alto Minho,ARS Norte,4900-530,Viana do Castelo,Uni?o das freguesias de Viana do Castelo (Santa Maria Maior e Monserrate) e Meadela,Viana do Castelo,41.694800000000001,-8.828609999999999,VIANA DO CASTELO,./0.png
-9.23475,38.7153,USF Jardim dos Pl tanos,USF-B,4/23/2012,10-01-18,ACES Lisboa Ocidental e Oeiras,,ARS Lisboa e Vale do Tejo,2799-534,Linda-a-Velha,"Uni?o das freguesias de Alg‚s, Linda-a-Velha e Cruz Quebrada-Dafundo",Oeiras,38.715299999999999,-9.234750000000000,LISBOA,./0.png
-8.62508,39.9174,USF Marquˆs,USF-B,6/22/2015,10-01-18,ACES Pinhal Litoral,,ARS Centro,3100-462,Pombal,Pombal,Pombal,39.917400000000001,-8.625080000000001,LEIRIA,./0.png
-8.81998,39.6622,USF Condest vel,USF-B,9/26/2011,10-01-18,ACES Pinhal Litoral,,ARS Centro,2440-036,Batalha,Batalha,Batalha,39.662199999999999,-8.819979999999999,LEIRIA,./0.png
-7.91505,40.6591,USF Alves Martins,USF-B,10/29/2012,10-01-18,ACES D?o Laf?es,,ARS Centro,3514-511,Viseu,Viseu,Viseu,40.659100000000002,-7.915050000000000,VISEU,./0.png
-8.68834,37.1018,USF Descobrimentos,USF-B,05-10-16,10-01-18,ACES Algarve Barlavento,,ARS Algarve,8600-296,Lagos,Uni?o das freguesias de Lagos (S?o Sebasti?o e Santa Maria),Lagos,37.101799999999997,-8.688340000000000,FARO,./0.png
-8.57712,41.1038,UCSP Soares dos Reis / Vilar,UCSP,3/20/2007,3/20/2007,ACES Gaia,,ARS Norte,4430-393,Vila Nova de Gaia,Vilar de Andorinho,Vila Nova de Gaia,41.103800000000000,-8.577120000000001,PORTO,./0.png
-8.54054,41.1912,USF Baguim,USF-A,12-09-08,02-01-12,ACES Gondomar,,ARS Norte,4435-667,Baguim do Monte,Baguim do Monte (Rio Tinto),Gondomar,41.191200000000002,-8.540540000000000,PORTO,./0.png
-7.91007,38.5786,UCSP vora,UCSP,10-01-18,10-01-18,ACES Alentejo Central,,ARS Alentejo,7000-747,vora,Uni?o das freguesias de Bacelo e Senhora da Sa£de,vora,38.578600000000002,-7.910070000000000,VORA,./0.png
-8.87073,40.166,USF Nautilus,USF-A,11/19/2018,11/19/2018,ACES Baixo Mondego,,ARS Centro,3080-254,Figueira da Foz,Buarcos,Figueira da Foz,40.165999999999997,-8.870730000000000,COIMBRA,./0.png
-7.48688,39.8313,USF Beira Sa£de,USF-A,11/26/2018,11/26/2018,ACES Beira Interior Sul,ULS Castelo Branco,ARS Centro,6000-491,Castelo Branco,Castelo Branco,Castelo Branco,39.831299999999999,-7.486880000000000,CASTELO BRANCO,./0.png
-8.45605,40.3803,USF Mealhada,USF-A,11/26/2018,11/26/2018,ACES Baixo Mondego,,ARS Centro,3050-387,Mealhada,"Uni?o das freguesias da Mealhada, Ventosa do Bairro e Antes",Mealhada,40.380299999999998,-8.456049999999999,AVEIRO,./0.png
-8.43054,40.3389,USF Caminhos do C‚rtoma,USF-A,11/26/2018,11/26/2018,ACES Baixo Mondego,,ARS Centro,3050-428,Pampilhosa,Pampilhosa,Mealhada,40.338900000000002,-8.430540000000001,AVEIRO,./0.png
-8.55973,41.113,USF Avintes,USF-A,12-03-18,12-03-18,ACES Gaia,,ARS Norte,4430-803,Avintes,Avintes,Vila Nova de Gaia,41.113000000000000,-8.559730000000000,PORTO,./0.png
-8.54634,41.4632,USF Vale do Este,USF-A,12-03-18,12-03-18,ACES Ave / Famalic?o,,ARS Norte,4775-456,Nine,Nine,Vila Nova de Famalic?o,41.463200000000001,-8.546340000000001,BRAGA,./0.png
-8.25504,37.0984,USF Sol Nascente,USF-A,12/14/2018,12/14/2018,ACES Algarve Central,,ARS Algarve,8200-200,Albufeira,Albufeira e Olhos de ?gua,Albufeira,37.098399999999998,-8.255039999999999,FARO,./0.png
-9.33617,38.7139,USF Ilumina,USF-A,12/14/2018,12/14/2018,ACES Cascais,,ARS Lisboa e Vale do Tejo,2785-780,S?o Domingos de Rana,S?o Domingos de Rana,Cascais,38.713900000000002,-9.336169999999999,LISBOA,./0.png
-9.15854,38.7661,USF Dona Am‚lia de Portugal,USF-A,12/17/2018,12/17/2018,ACES Lisboa Norte,,ARS Lisboa e Vale do Tejo,1769-001,Lisboa,Lumiar,Lisboa,38.766100000000002,-9.158540000000000,LISBOA,./0.png
-7.96582,41.4881,USF Arco de Ba£lhe / Cavez,USF-A,12/17/2018,12/17/2018,ACES Alto Ave,,ARS Norte,4860-083,Arco de Ba£lhe,Uni?o das freguesias de Arco de Ba£lhe e Vila Nune,Cabeceiras de Basto,41.488100000000003,-7.965820000000000,BRAGA,./0.png
-8.58662,40.8066,USF ?guas do Gonde,USF-A,12/17/2018,12/17/2018,ACES Baixo Vouga,,ARS Centro,3860-040,Avanca,Avanca,Estarreja,40.806600000000003,-8.586620000000000,AVEIRO,./0.png
-8.33593,41.3822,USF Moreira de C¢negos,USF-A,12/17/2018,12/17/2018,ACES Alto Ave,,ARS Norte,4815-328,Moreira de C¢negos,Moreira de C¢negos,Guimar?es,41.382199999999997,-8.335929999999999,BRAGA,./0.png
-9.2833,38.7465,USF Quinta das Lindas,USF-A,12/19/2018,12/19/2018,ACES Lisboa Ocidental e Oeiras,,ARS Lisboa e Vale do Tejo,2730-165,Barcarena,Barcarena,Oeiras,38.746499999999997,-9.283300000000001,LISBOA,./0.png
-8.81076,39.7365,USF Polis,USF-A,12/21/2018,12/21/2018,ACES Pinhal Litoral,,ARS Centro,2410-272,Leiria,"Uni?o das freguesias de Leiria, Pousos, Barreira e Cortes",Leiria,39.736499999999999,-8.810760000000000,LEIRIA,./0.png
-8.54561,37.138,USF Portas do Arade,USF-A,12/20/2018,12/20/2018,ACES Algarve Barlavento,,ARS Algarve,8500-723,Portim?o,Portim?o,Portim?o,37.137999999999998,-8.545610000000000,FARO,./0.png
-9.18153,38.7951,USF do Mosteiro,USF-A,12/27/2018,12/27/2018,ACES Loures / Odivelas,,ARS Lisboa e Vale do Tejo,2675-384,Odivelas,Odivelas,Odivelas,38.795099999999998,-9.181530000000000,LISBOA,./0.png
-9.37737,38.8481,USF Terra,USF-A,12/21/2018,12/21/2018,ACES Sintra,,ARS Lisboa e Vale do Tejo,2705-854,Terrugem,Uni?o das freguesias de S?o Jo?o das Lampas e Terrugem,Sintra,38.848100000000002,-9.377370000000001,LISBOA,./0.png
-8.61259,41.1695,USF Lindo Vale,USF-A,12/28/2018,12/28/2018,ACES Porto Oriental,,ARS Norte,4200-510,Porto,Paranhos,Porto,41.169499999999999,-8.612590000000001,PORTO,./0.png
-8.45517,38.6746,USF Vendas Novas,USF-A,12/28/2018,12/28/2018,ACES Alentejo Central,,ARS Alentejo,7080-135,Vendas Novas,Vendas Novas,Vendas Novas,38.674599999999998,-8.455170000000001,VORA,./0.png
-9.39925,38.8735,UCSP S?o Jo?o das Lampas,UCSP,01-01-19,01-01-19,ACES Sintra,,ARS Lisboa e Vale do Tejo,2705-737,S?o Jo?o das Lampas,Uni?o das freguesias de S?o Jo?o das Lampas e Terrugem,Sintra,38.873500000000000,-9.399250000000000,LISBOA,./0.png
-8.18986,39.4463,USF Beira Tejo,USF-A,3/13/2019,3/13/2019,ACES M‚dio Tejo,,ARS Lisboa e Vale do Tejo,2205-052,Abrantes,Uni?o das freguesias de S?o Miguel do Rio Torto e Rossio ao Sul do Tejo,Abrantes,39.446300000000001,-8.189859999999999,SANTARM,./0.png
-8.64841,40.7475,USF Terra Marinhoa,USF-A,4/15/2019,4/15/2019,ACES Baixo Vouga,,ARS Centro,3870-264,Murtosa,Murtosa,Murtosa,40.747500000000002,-8.648410000000000,AVEIRO,./0.png
-8.68151,39.6337,UCSP F tima,UCSP,04-01-19,04-01-19,ACES M‚dio Tejo,,ARS Lisboa e Vale do Tejo,2495-450,F tima,F tima,Our‚m,39.633699999999997,-8.681509999999999,SANTARM,./0.png
-8.52665,41.4066,USF Alto da Vila,USF-A,5/13/2019,5/13/2019,ACES Ave / Famalic?o,,ARS Norte,4760-101,Vila Nova de Famalic?o,Uni?o das freguesias de Vila Nova de Famalic?o e Calend rio,Vila Nova de Famalic?o,41.406599999999997,-8.526650000000000,BRAGA,./0.png
-8.93116,39.7422,UCSP Atlƒntica,UCSP,05-06-19,05-06-19,ACES Pinhal Litoral,,ARS Centro,2430-069,Marinha Grande,Marinha Grande,Marinha Grande,39.742199999999997,-8.931160000000000,LEIRIA,./0.png
-8.93116,39.7422,UCSP Cuid'Arte,UCSP,05-06-19,05-06-19,ACES Pinhal Litoral,,ARS Centro,2430-069,Marinha Grande,Marinha Grande,Marinha Grande,39.742199999999997,-8.931160000000000,LEIRIA,./0.png
-9.25261,38.7556,USF Queluz,USF-A,06-05-19,06-05-19,ACES Sintra,,ARS Lisboa e Vale do Tejo,2745-107,Queluz,Uni?o das freguesias de Queluz e Belasÿ,Sintra,38.755600000000001,-9.252610000000001,LISBOA,./0.png
-8.89853,39.6874,USF Fonte do Rei,USF-A,5/24/2019,5/24/2019,ACES Pinhal Litoral,,ARS Centro,2405-018,Maceira - Leiria,Maceira,Leiria,39.687399999999997,-8.898529999999999,LEIRIA,./0.png
-9.33605,38.9368,USF D. Jo?o V,USF-A,5/30/2019,5/30/2019,ACES Oeste Sul,,ARS Lisboa e Vale do Tejo,2640-465,Mafra,Mafra,Mafra,38.936799999999998,-9.336050000000000,LISBOA,./0.png
-8.42095,41.5109,USF Espor?es,USF-A,6/28/2019,6/28/2019,ACES Braga,,ARS Norte,4705-475,Espor?es,Espor?es,Braga,41.510899999999999,-8.420949999999999,BRAGA,./0.png
-8.78126,41.5368,USF Farol Esposende,USF-A,6/25/2019,6/25/2019,ACES Barcelos / Esposende,,ARS Norte,4740-001,Esposende,"Uni?o das freguesias de Esposende, Marinhas e Gandra",Esposende,41.536799999999999,-8.781260000000000,BRAGA,./0.png
-8.392,40.8478,USF Vale de Cambra,USF-A,6/28/2019,6/28/2019,ACES Aveiro Norte,,ARS Norte,3720-250,Vale de Cambra,S?o Pedro de Castel?es,Vale de Cambra,40.847799999999999,-8.391999999999999,AVEIRO,./0.png
-9.13052,38.715,USF M¢nicas,USF-A,6/24/2019,6/24/2019,ACES Lisboa Central,,ARS Lisboa e Vale do Tejo,1100-359,Lisboa,S?o Vicente,Lisboa,38.715000000000003,-9.130520000000001,LISBOA,./0.png
-9.22791,38.7034,USF Dami?o de G¢is,USF-A,07-01-19,07-01-19,ACES Lisboa Ocidental e Oeiras,,ARS Lisboa e Vale do Tejo,1495-088,Alg‚s,"Uni?o das freguesias de Alg‚s, Linda-a-Velha e Cruz Quebrada-Dafundo",Oeiras,38.703400000000002,-9.227910000000000,LISBOA,./0.png
-7.78601,41.2093,USF Santa Marta,USF-A,6/28/2019,6/28/2019,ACES Mar?o e Douro Norte,,ARS Norte,5030-474,Santa Marta de Penagui?o,Uni?o das freguesias de Lobrigos (S?o Miguel e S?o Jo?o Baptista) e Sanhoane,Santa Marta de Penagui?o,41.209299999999999,-7.786010000000000,VILA REAL,./0.png
-8.01256,37.1456,USF SerraMar,USF-A,7/15/2019,7/15/2019,ACES Algarve Central,,ARS Algarve,8100-740,Loul‚,Loul‚ (S?o Clemente),Loul‚,37.145600000000002,-8.012560000000001,FARO,./0.png
-9.0964,38.8185,USF Extramuros,USF-A,7/15/2019,7/15/2019,ACES Loures / Odivelas,,ARS Lisboa e Vale do Tejo,2695-845,S?o Jo?o da Talha,"Uni?o das freguesias de Santa Iria de Azoia, S?o Jo?o da Talha e Bobadela",Loures,38.818500000000000,-9.096399999999999,LISBOA,./0.png
-8.09313,37.0705,USF Quarteira,USF-A,07-08-19,07-08-19,ACES Algarve Central,,ARS Algarve,8125-589,Quarteira,Quarteira,Loul‚,37.070500000000003,-8.093130000000000,FARO,./0.png
-8.57634,41.0687,USF Viver Sa£de,USF-A,07-11-19,07-11-19,ACES Espinho / Gaia,,ARS Norte,4415-135,Pedroso,Uni?o das freguesias de Pedroso e Seixezelo,Vila Nova de Gaia,41.068700000000000,-8.576340000000000,PORTO,./0.png
-8.62595,40.9923,UCSP Paramos / Silvalde,UCSP,3/20/2007,3/20/2007,ACES Espinho / Gaia,,ARS Norte,4500-474,Espinho,Secarias,Arganil,40.992300000000000,-8.625950000000000,COIMBRA,./0.png
-9.15862,39.2727,USF Bombarral,USF-A,7/16/2019,7/16/2019,ACES Oeste Norte,,ARS Lisboa e Vale do Tejo,2540-073,Bombarral,Uni?o das freguesias do Bombarral e Vale Covo,Bombarral,39.272700000000000,-9.158620000000001,LEIRIA,./0.png
-9.03954,38.8927,USF Gago Coutinho,USF-A,7/18/2019,7/18/2019,ACES Estu rio do Tejo,,ARS Lisboa e Vale do Tejo,2615-042,Alverca do Ribatejo,Uni?o das freguesias de Alverca do Ribatejo e Sobralinho,Vila Franca de Xira,38.892699999999998,-9.039540000000001,LISBOA,./0.png
-8.62052,41.1564,USF Cedofeita,USF-A,7/30/2019,7/30/2019,ACES Porto Ocidental,,ARS Norte,4050-110,Porto,"Uni?o das freguesias de Cedofeita, Santo Ildefonso, S‚, Miragaia, S?o Nicolau e Vit¢ria",Porto,41.156399999999998,-8.620520000000001,PORTO,./0.png
-7.70391,38.3069,USF Portel,USF-A,7/31/2019,7/31/2019,ACES Alentejo Central,,ARS Alentejo,7220-361,Portel,Portel,Portel,38.306899999999999,-7.703910000000000,VORA,./0.png
-9.03954,38.8927,USF Albirka do Tejo,USF-A,09-02-19,09-02-19,ACES Estu rio do Tejo,,ARS Lisboa e Vale do Tejo,2615-042,Alverca do Ribatejo,Uni?o das freguesias de Alverca do Ribatejo e Sobralinho,Vila Franca de Xira,38.892699999999998,-9.039540000000001,LISBOA,./0.png
-8.60741,40.5963,USF Arte Nova,USF-A,11/28/2016,11/28/2016,ACES Baixo Vouga,,ARS Centro,3810-875,Oliveirinha,Oliveirinha,Aveiro,40.596299999999999,-8.607410000000000,AVEIRO,./0.png
0,0,UCSP Carregado,UCSP,09-01-19,09-01-19,ACES Estu rio do Tejo,,ARS Lisboa e Vale do Tejo,2600-445,ALHANDRA,"Uni?o das freguesias de Alhandra, S?o Jo?o dos Montes e Calhandriz",Vila Franca de Xira,,,LISBOA,./0.png
-8.03119,37.0854,UCSP Almancil / Boliqueime,UCSP,3/20/2007,3/20/2007,ACES Algarve Central,,ARS Algarve,8135-173,Almancil,Almancil,Loul‚,37.085400000000000,-8.031190000000000,FARO,./0.png
-8.55504,37.3199,UCSP Monchique,UCSP,2/22/2012,2/22/2012,ACES Algarve Barlavento,,ARS Algarve,8550-426,Monchique,Monchique,Monchique,37.319899999999997,-8.555040000000000,FARO,./0.png
-8.25504,37.0984,UCSP Albufeira,UCSP,3/20/2007,3/20/2007,ACES Algarve Central,,ARS Algarve,8200-200,Albufeira,Albufeira e Olhos de ?gua,Albufeira,37.098399999999998,-8.255039999999999,FARO,./0.png
0,0,UCSP Aleo,UCSP,05-01-11,05-01-11,ACES Algarve Sotavento,,ARS Algarve,8970-064,Alcoutim,Uni?o das freguesias de Alcoutim e Pereiro,Alcoutim,,,FARO,./0.png
-8.80373,37.3171,UCSP Aljezur,UCSP,3/20/2007,3/20/2007,ACES Algarve Barlavento,,ARS Algarve,8670-084,Aljezur,Aljezur,Aljezur,37.317100000000003,-8.803730000000000,FARO,./0.png
-7.93765,37.0275,UCSP Faro,UCSP,3/20/2007,3/20/2007,ACES Algarve Central,,ARS Algarve,8009-003,Faro,Uni?o das freguesias de Faro (S‚ e S?o Pedro),Faro,37.027500000000003,-7.937650000000000,FARO,./0.png
-8.45814,37.1361,UCSP Lagoa,UCSP,3/20/2007,3/20/2007,ACES Algarve Barlavento,,ARS Algarve,8400-413,Lagoa,Uni?o das freguesias de Lagoa e Carvoeiro,Lagoa,37.136099999999999,-8.458140000000000,FARO,./0.png
-8.68834,37.1018,UCSP Lagos,UCSP,3/20/2007,3/20/2007,ACES Algarve Barlavento,,ARS Algarve,8600-296,Lagos,Uni?o das freguesias de Lagos (S?o Sebasti?o e Santa Maria),Lagos,37.101799999999997,-8.688340000000000,FARO,./0.png
-8.01256,37.1456,UCSP Loul‚,UCSP,3/20/2007,3/20/2007,ACES Algarve Central,,ARS Algarve,8100-740,Loul‚,Loul‚ (S?o Clemente),Loul‚,37.145600000000002,-8.012560000000001,FARO,./0.png
-7.84028,37.0363,UCSP Olh?o,UCSP,3/20/2007,3/20/2007,ACES Algarve Central,,ARS Algarve,8700-240,Olh?o,Quelfes,Olh?o,37.036299999999997,-7.840280000000000,FARO,./0.png
-8.54561,37.138,UCSP Portim?o,UCSP,3/20/2007,3/20/2007,ACES Algarve Barlavento,,ARS Algarve,8500-723,Portim?o,Portim?o,Portim?o,37.137999999999998,-8.545610000000000,FARO,./0.png
-8.43209,37.1962,UCSP Silves,UCSP,3/20/2007,3/20/2007,ACES Algarve Barlavento,,ARS Algarve,8300-167,Silves,Silves,Silves,37.196199999999997,-8.432090000000001,FARO,./0.png
-7.65061,37.1159,UCSP Mar,UCSP,01-01-11,01-01-11,ACES Algarve Sotavento,,ARS Algarve,8800-534,Tavira,Santa Luzia,Tavira,37.115900000000003,-7.650610000000000,FARO,./0.png
-8.9117,37.0841,UCSP Vila do Bispo,UCSP,3/20/2007,3/20/2007,ACES Algarve Barlavento,,ARS Algarve,8650-405,Vila do Bispo,Vila do Bispo e Raposeira,Vila do Bispo,37.084099999999999,-8.911700000000000,FARO,./0.png
-8.13965,41.6351,UCSP Vieira do Minho,UCSP,3/20/2007,3/20/2007,ACES Gerˆs / Cabreira,,ARS Norte,4850-527,Vieira do Minho,Vieira do Minho,Vieira do Minho,41.635100000000001,-8.139650000000000,BRAGA,./0.png
-6.96303,41.3457,UCSP Alfƒndega da F‚,UCSP,3/20/2007,3/20/2007,ACES Nordeste,ULS Nordeste,ARS Norte,5350-009,Alfandega da F‚,Alfƒndega da F‚,Alfƒndega da F‚,41.345700000000001,-6.963030000000000,BRAGAN€A,./0.png
0,0,UCSP Carrazeda Ansi?es,UCSP,3/20/2007,3/20/2007,ACES Nordeste,ULS Nordeste,ARS Norte,5140-073,Carrazeda de Ansi?es,Carrazeda de Ansi?es,Carrazeda de Ansi?es,,,BRAGAN€A,./0.png
0,0,UCSP Freixo de Espada … Cinta,UCSP,3/20/2007,3/20/2007,ACES Nordeste,ULS Nordeste,ARS Norte,5180-122,FREIXO DE ESPADA ? CINTA,Uni?o das freguesias de Freixo de Espada … Cinta e Mazouco,Freixo de Espada … Cinta,,,BRAGAN€A,./0.png
-6.27643,41.4953,UCSP Miranda do Douro,UCSP,3/20/2007,3/20/2007,ACES Nordeste,ULS Nordeste,ARS Norte,5210-217,Miranda do Douro,Miranda do Douro,Miranda do Douro,41.495300000000000,-6.276430000000000,BRAGAN€A,./0.png
-6.71202,41.343,UCSP Mogadouro,UCSP,3/20/2007,3/20/2007,ACES Nordeste,ULS Nordeste,ARS Norte,5200-207,Mogadouro,"Uni?o das freguesias de Mogadouro, Valverde, Vale de Porco e Vilar de Rei",Mogadouro,41.343000000000004,-6.712020000000000,BRAGAN€A,./0.png
0,0,UCSP Torre de Moncorvo,UCSP,3/20/2007,3/20/2007,ACES Nordeste,ULS Nordeste,ARS Norte,5160-304,MONCORVO,,,,,#N/A,./0.png
